     3.05           OBSERVATION DATA    M                   RINEX VERSION / TYPE
GSPF V1.7.0                             20250903 140935 UTC PGM / RUN BY / DATE
S101                                                        MARKER NAME
NON_GEODETIC                                                MARKER TYPE
                                                            OBSERVER / AGENCY
                                                            REC # / TYPE / VERS
                                                            ANT # / TYPE
  4181975.8804   860785.7409  4723075.8589                  APPROX POSITION XYZ
        0.0000        0.0000        0.0000                  ANTENNA: DELTA H/E/N
G    4 C1C L1C D1C S1C                                      SYS / # / OBS TYPES
E    4 C1B L1B D1B S1B                                      SYS / # / OBS TYPES
  2025     4    22    14     0    1.0000000     GPS         TIME OF FIRST OBS
G L1C  0.00000   0                                          SYS / PHASE SHIFT
E L1B  0.00000   0                                          SYS / PHASE SHIFT
 C1C    0.000 C1P    0.000 C2C    0.000 C2P    0.000        GLONASS COD/PHS/BIS
                                                            END OF HEADER
> 2025 04 22 14 00  1.0000000  0 16
G03  24466458.32900 128572106.30900      1659.17500                
G09  24282365.32800 127604691.05800      -394.00700                
G14  20692446.74400 108739541.57300      -197.98600                
G15  24879094.39800 130740523.48500     -4071.57100                
G18  21953154.70500 115364606.62300      2568.54700                
G19  21607166.59300 113546426.82300     -2172.23600                
G22  23698092.79300 124534318.16400      2969.77600                
G23  20732534.03300 108950201.69800     -1171.32000                
G27  21297649.22400 111919902.07000      1923.16400                
G28  24136646.45600 126838933.21900     -3003.73300                
E01         5.08400        26.71900        -6.14400                
E02         9.57100        50.29800         9.75400                
E03        22.92800       120.48500         7.24700                
E04        29.90000       157.12600         3.82500                
E05        24.37700       128.10300        -0.41900                
E06        12.65600        66.51000        -6.56000                
> 2025 04 22 14 00  2.0000000  0 16
G03  24466143.05700 128570449.54200      1654.39000                
G09  24282440.10700 127605084.02800      -392.05100                
G14  20692484.27000 108739738.77300      -196.43700                
G15  24879869.23900 130744595.30200     -4071.96700                
G18  21952665.70600 115362036.91200      2570.78800                
G19  21607580.25300 113548600.61800     -2175.29300                
G22  23697527.30000 124531346.47800      2973.56600                
G23  20732757.09600 108951373.90300     -1173.09200                
G27  21297283.41600 111917979.73400      1921.58400                
G28  24137218.39600 126841938.78300     -3007.43600                
E01         6.67100        35.05900       -10.21200                
E02         7.59300        39.90200        10.83900                
E03        21.23200       111.57600        10.52100                
E04        28.82400       151.47300         7.42600                
E05        24.15900       126.95900         2.63400                
E06        13.80300        72.53700        -5.61200                
> 2025 04 22 14 00  3.0000000  0 16
G03  24465828.66600 128568797.41000      1649.95000                
G09  24282514.58600 127605475.41600      -390.86400                
G14  20692521.51900 108739934.51600      -195.09300                
G15  24880644.08800 130748667.16200     -4071.65500                
G18  21952176.32900 115359465.22000      2572.48600                
G19  21607994.45000 113550777.23900     -2177.86200                
G22  23696961.10400 124528371.09800      2977.12400                
G23  20732980.49400 108952547.86500     -1174.81900                
G27  21296917.86100 111916058.72900      1920.50800                
G28  24137791.05000 126844948.10300     -3011.21000                
E01         8.88100        46.67200       -12.84800                
E02         5.59700        29.41100         9.43400                
E03        18.95000        99.58400        13.37100                
E04        27.10100       142.41900        10.59300                
E05        23.41000       123.02000         5.13400                
E06        14.84000        77.98700        -5.41800                
> 2025 04 22 14 00  4.0000000  0 16
G03  24465515.06800 128567149.44200      1646.10100                
G09  24282588.92100 127605866.05100      -390.56100                
G14  20692558.54100 108740129.07000      -194.08100                
G15  24881418.81100 130752738.36100     -4070.65400                
G18  21951686.69100 115356892.15400      2573.51900                
G19  21608409.07800 113552956.12600     -2179.80400                
G22  23696394.27100 124525392.37300      2980.21800                
G23  20733204.20900 108953723.49700     -1176.41900                
G27  21296552.46000 111914138.53400      1919.96700                
G28  24138364.41300 126847961.14300     -3014.84000                
E01        11.51000        60.48700       -14.66400                
E02         4.46200        23.44800         0.94400                
E03        16.18500        85.05300        15.56000                
E04        24.83200       130.49100        13.14800                
E05        22.25200       116.93700         6.89700                
E06        15.91000        83.60600        -5.91700                
> 2025 04 22 14 00  5.0000000  0 16
G03  24465202.13000 128565504.93900      1643.05000                
G09  24282663.28800 127606256.85200      -391.20100                
G14  20692595.41200 108740322.82500      -193.51000                
G15  24882193.28400 130756808.24100     -4069.03000                
G18  21951196.92600 115354318.42200      2573.81100                
G19  21608824.00900 113555136.60000     -2181.02100                
G22  23695826.91100 124522410.87500      2982.64200                
G23  20733428.21100 108954900.63200     -1177.81300                
G27  21296187.11100 111912218.61100      1919.95900                
G28  24138938.43600 126850977.65600     -3018.12300                
E01        14.41800        75.76500       -15.77100                
E02         5.47700        28.78100       -10.77900                
E03        13.08600        68.77000        16.82900                
E04        22.14500       116.37300        14.95500                
E05        20.83900       109.50900         7.81400                
E06        17.11700        89.95200        -6.80200                
> 2025 04 22 14 00  6.0000000  0 16
G03  24464889.68300 128563863.01900      1640.95600                
G09  24282737.86800 127606648.76800      -392.78500                
G14  20692632.22200 108740516.26400      -193.45900                
G15  24882967.39500 130760876.22500     -4066.88300                
G18  21950707.17800 115351744.78200      2573.33100                
G19  21609239.09700 113557317.90300     -2181.45900                
G22  23695259.16600 124519427.35700      2984.23400                
G23  20733652.45300 108956079.03200     -1178.94000                
G27  21295821.71500 111910298.44400      1920.44900                
G28  24139513.03700 126853997.20100     -3020.87600                
E01        17.46400        91.77200       -16.10800                
E02         8.09900        42.56000       -15.81500                
E03         9.86300        51.83100        16.77400                
E04        19.19300       100.85800        15.93300                
E05        19.33200       101.59100         7.89200                
E06        18.49400        97.18800        -7.62200                
> 2025 04 22 14 00  7.0000000  0 16
G03  24464577.53500 128562222.67000      1639.91900                
G09  24282812.83400 127607042.71900      -395.25500                
G14  20692669.07600 108740709.93300      -193.97600                
G15  24883741.05900 130764941.85500     -4064.34800                
G18  21950217.59500 115349172.00400      2572.09500                
G19  21609654.19300 113559499.24900     -2181.11100                
G22  23694691.20700 124516442.71100      2984.88400                
G23  20733876.88000 108957258.40500     -1179.75100                
G27  21295456.18400 111908377.56400      1921.37100                
G28  24140088.09800 126857019.17000     -3022.94900                
E01        20.49500       107.70300       -15.61200                
E02        11.25900        59.16700       -17.00100                
E03         6.85000        35.99500        14.32800                
E04        16.13500        84.79100        16.06200                
E05        17.87800        93.94900         7.30500                
E06        19.98700       105.03100        -7.95300                
> 2025 04 22 14 00  8.0000000  0 16
G03  24464265.48100 128560582.81300      1639.97300                
G09  24282888.34600 127607439.53700      -398.49800                
G14  20692706.08400 108740904.41100      -195.07500                
G15  24884514.21600 130769004.82300     -4061.58500                
G18  21949728.31400 115346600.81500      2570.16700                
G19  21610069.15200 113561679.87100     -2180.02000                
G22  23694123.21800 124513457.91000      2984.54000                
G23  20734101.42900 108958438.41800     -1180.21900                
G27  21295090.44300 111906455.58400      1922.63200                
G28  24140663.48000 126860042.82500     -3024.23500                
E01        23.35200       122.71300       -14.26900                
E02        14.45900        75.98300       -16.41000                
E03         4.75900        25.00600         6.36600                
E04        13.13100        69.00500        15.38100                
E05        16.57200        87.08800         6.39900                
E06        21.47300       112.83900        -7.52200                
> 2025 04 22 14 00  9.0000000  0 16
G03  24463953.31400 128558942.36900      1641.08200                
G09  24282964.53600 127607839.91900      -402.35300                
G14  20692743.35400 108741100.27000      -196.73200                
G15  24885286.83900 130773064.98600     -4058.76500                
G18  21949239.45800 115344031.85800      2567.65300                
G19  21610483.83900 113563859.06600     -2178.27700                
G22  23693555.39000 124510473.94900      2983.21100                
G23  20734326.03400 108959618.72400     -1180.33900                
G27  21294724.43900 111904532.22000      1924.11700                
G28  24141239.02800 126863067.34500     -3024.67400                
E01        25.87500       135.97300       -12.12500                
E02        17.43500        91.62000       -14.70700                
E03         4.75000        24.96100        -5.77900                
E04        10.32800        54.27300        13.96400                
E05        15.43400        81.10400         5.63100                
E06        22.79500       119.78700        -6.23200                
> 2025 04 22 14 00 10.0000000  0 16
G03  24463640.84400 128557300.32700      1643.14700                
G09  24283041.50200 127608244.37900      -406.62000                
G14  20692780.98900 108741298.04100      -198.88800                
G15  24886058.93500 130777122.37400     -4056.06700                
G18  21948751.12400 115341465.64800      2564.69700                
G19  21610898.14200 113566036.24400     -2176.01000                
G22  23692987.90200 124507491.78200      2980.96900                
G23  20734550.62900 108960798.98200     -1180.12400                
G27  21294358.14100 111902607.31200      1925.70000                
G28  24141814.57700 126866091.87700     -3024.26100                
E01        27.92200       146.73000        -9.28500                
E02        20.00600       105.13100       -12.20200                
E03         6.42900        33.78700       -10.57700                
E04         7.86200        41.31400        11.82600                
E05        14.39400        75.64300         5.40700                
E06        23.79300       125.03100        -4.13000                
> 2025 04 22 14 00 11.0000000  0 16
G03  24463327.90200 128555655.80600      1646.00900                
G09  24283119.30200 127608653.22100      -411.07500                
G14  20692819.07500 108741498.18300      -201.45600                
G15  24886830.54100 130781177.19500     -4053.65800                
G18  21948263.38200 115338902.54500      2561.47000                
G19  21611311.97700 113568210.96000     -2173.38300                
G22  23692420.91800 124504512.26200      2977.94100                
G23  20734775.15500 108961978.87300     -1179.61300                
G27  21293991.54300 111900680.82800      1927.24600                
G28  24142389.97000 126869115.58600     -3023.04300                
E01        29.37400       154.36300        -5.90600                
E02        22.04300       115.83800        -9.13900                
E03         8.47600        44.54100       -10.51700                
E04         5.88900        30.94800         8.68400                
E05        13.32700        70.03500         5.93600                
E06        24.32400       127.82600        -1.36500                
> 2025 04 22 14 00 12.0000000  0 16
G03  24463014.35600 128554008.10900      1649.45900                
G09  24283197.94900 127609066.51400      -415.48200                
G14  20692857.67900 108741701.05200      -204.31900                
G15  24887601.72900 130785229.81500     -4051.68900                
G18  21947776.26500 115336342.72900      2558.15800                
G19  21611725.29200 113570382.94600     -2170.58000                
G22  23691854.57200 124501536.09200      2974.30400                
G23  20734999.55900 108963158.12600     -1178.86000                
G27  21293624.66500 111898752.87000      1928.62400                
G28  24142965.06100 126872137.71400     -3021.11600                
E01        30.14800       158.42600        -2.18100                
E02        23.46400       123.30200        -5.75800                
E03        10.34700        54.37300        -9.04300                
E04         4.67500        24.56600         3.70100                
E05        12.09000        63.53400         7.16700                
E06        24.28300       127.60800         1.85800                
> 2025 04 22 14 00 13.0000000  0 16
G03  24462700.11700 128552356.77000      1653.25200                
G09  24283277.41200 127609484.09100      -419.60700                
G14  20692896.84700 108741906.87600      -207.34600                
G15  24888372.59500 130789280.74100     -4050.28500                
G18  21947289.77100 115333786.18600      2554.95400                
G19  21612138.07200 113572552.12200     -2167.79800                
G22  23691288.95900 124498563.77500      2970.27200                
G23  20735223.80300 108964336.53300     -1177.93400                
G27  21293257.55100 111896823.67100      1929.71200                
G28  24143539.73000 126875157.61700     -3018.62200                
E01        30.19600       158.68200         1.67200                
E02        24.23000       127.33000        -2.30800                
E03        11.90600        62.56700        -7.37000                
E04         4.59200        24.12900        -2.87200                
E05        10.57300        55.56000         8.81700                
E06        23.60300       124.03700         5.29800                
> 2025 04 22 14 00 14.0000000  0 16
G03  24462385.14400 128550701.57700      1657.12100                
G09  24283357.61500 127609905.56100      -423.23400                
G14  20692936.59400 108742115.75000      -210.39300                
G15  24889143.25400 130793330.58400     -4049.53400                
G18  21946803.86200 115331232.71500      2552.04400                
G19  21612550.34100 113574718.60800     -2165.23100                
G22  23690724.13200 124495595.58900      2966.08600                
G23  20735447.86000 108965513.96200     -1176.91700                
G27  21292890.26500 111894893.57300      1930.40800                
G28  24144113.88300 126878174.81500     -3015.73600                
E01        29.51700       155.11500         5.42700                
E02        24.35400       127.97900         0.95800                
E03        13.17500        69.23700        -6.06300                
E04         5.67600        29.82900        -8.15000                
E05         8.74000        45.92900        10.36500                
E06        22.26900       117.02300         8.70300                
> 2025 04 22 14 00 15.0000000  0 16
G03  24462069.44900 128549042.58900      1660.79600                
G09  24283438.44600 127610330.33100      -426.17800                
G14  20692976.91200 108742327.62100      -213.31600                
G15  24889913.83700 130797380.02200     -4049.48300                
G18  21946318.46500 115328681.93600      2549.59500                
G19  21612962.15600 113576882.71000     -2163.06000                
G22  23690160.09600 124492631.56300      2961.99200                
G23  20735671.72200 108966690.36300     -1175.89400                
G27  21292522.89100 111892963.00900      1930.63200                
G28  24144687.46600 126881189.01400     -3012.66000                
E01        28.15100       147.93400         8.86400                
E02        23.89300       125.55600         3.79800                
E03        14.25700        74.92100        -5.43300                
E04         7.56700        39.76600       -11.47900                
E05         6.69900        35.20300        10.73600                
E06        20.30900       106.72600        11.82300                
> 2025 04 22 14 00 16.0000000  0 16
G03  24461753.09400 128547380.13400      1664.01600                
G09  24283519.76000 127610757.64100      -428.29600                
G14  20693017.76300 108742542.29500      -215.97800                
G15  24890684.47700 130801429.76300     -4050.13600                
G18  21945833.47800 115326133.31600      2547.74700                
G19  21613373.60800 113579044.90700     -2161.44200                
G22  23689596.81200 124489671.48100      2958.23500                
G23  20735895.39500 108967865.77500     -1174.95300                
G27  21292155.52400 111891032.47800      1930.33500                
G28  24145260.46300 126884200.13000     -3009.60600                
E01        26.17700       137.55900        11.78500                
E02        22.94900       120.59800         5.99700                
E03        15.29200        80.35900        -5.56300                
E04         9.97800        52.43400       -13.72300                
E05         4.91100        25.80600         6.90900                
E06        17.80300        93.55300        14.41500                
> 2025 04 22 14 00 17.0000000  0 16
G03  24461436.18800 128545714.78300      1666.55100                
G09  24283601.39100 127611186.61700      -429.49700                
G14  20693059.08600 108742759.44900      -218.25800                
G15  24891455.30600 130805480.49600     -4051.45600                
G18  21945348.77800 115323586.20000      2546.60000                
G19  21613784.81500 113581205.81500     -2160.50000                
G22  23689034.19200 124486714.89500      2955.03600                
G23  20736118.90400 108969040.32100     -1174.17500                
G27  21291788.26300 111889102.51300      1929.50100                
G28  24145832.89700 126887208.29100     -3006.78400                
E01        23.70900       124.59100        14.02900                
E02        21.66100       113.82800         7.40100                
E03        16.41200        86.24500        -6.27900                
E04        12.74400        66.97100       -15.23400                
E05         4.61800        24.26900        -4.73000                
E06        14.87200        78.15100        16.24000                
> 2025 04 22 14 00 18.0000000  0 16
G03  24461118.88100 128544047.32000      1668.21300                
G09  24283683.16100 127611616.31800      -429.74700                
G14  20693100.79900 108742978.65100      -220.06100                
G15  24892226.44300 130809532.84900     -4053.35900                
G18  21944864.22500 115321039.85400      2546.21300                
G19  21614195.91400 113583366.15400     -2160.31400                
G22  23688472.11300 124483761.14800      2952.58300                
G23  20736342.28600 108970214.20100     -1173.63200                
G27  21291421.21200 111887173.64600      1928.14500                
G28  24146404.83200 126890213.83000     -3004.39200                
E01        20.88800       109.76600        15.48300                
E02        20.18700       106.08400         7.94400                
E03        17.69400        92.98400        -7.19400                
E04        15.73000        82.66100       -16.01700                
E05         6.49600        34.13500       -13.68800                
E06        11.68900        61.42400        17.00300                
> 2025 04 22 14 00 19.0000000  0 16
G03  24460801.35100 128542378.69000      1668.86700                
G09  24283764.88900 127612045.80100      -429.07000                
G14  20693142.80400 108743199.38900      -221.31900                
G15  24892997.98900 130813587.35000     -4055.73000                
G18  21944379.67100 115318493.50900      2546.59500                
G19  21614607.05300 113585526.70100     -2160.91800                
G22  23687910.41800 124480809.42100      2951.01600                
G23  20736565.59200 108971387.68100     -1173.38200                
G27  21291054.46500 111885246.37700      1926.31600                
G28  24146976.36600 126893217.26300     -3002.59800                
E01        17.87000        93.90800        16.09100                
E02        18.68700        98.20300         7.70200                
E03        19.13300       100.54400        -7.84700                
E04        18.78900        98.73800       -15.99900                
E05         9.44100        49.61500       -16.62600                
E06         8.50300        44.68100        16.12300                
> 2025 04 22 14 00 20.0000000  0 16
G03  24460483.79900 128540709.94300      1668.44200                
G09  24283846.40600 127612474.17600      -427.54900                
G14  20693184.99300 108743421.09600      -221.99800                
G15  24893770.01900 130817644.39600     -4058.42200                
G18  21943894.97500 115315946.41000      2547.71000                
G19  21615018.38000 113587688.24200     -2162.29400                
G22  23687348.92900 124477858.78000      2950.42200                
G23  20736788.88100 108972561.07400     -1173.46200                
G27  21290688.10500 111883321.14200      1924.09200                
G28  24147547.62700 126896219.26000     -3001.53700                
E01        14.81700        77.86300        15.86200                
E02        17.29000        90.86000         6.92500                
E03        20.64000       108.46600        -7.87100                
E04        21.76500       114.37500       -15.13300                
E05        12.66000        66.53100       -16.91000                
E06         5.76300        30.28300        11.81700                
> 2025 04 22 14 00 21.0000000  0 16
G03  24460166.43100 128539042.16400      1666.93400                
G09  24283927.56300 127612900.66100      -425.31700                
G14  20693227.25700 108743643.19200      -222.10200                
G15  24894542.57900 130821704.22500     -4061.26900                
G18  21943410.00200 115313397.86400      2549.47400                
G19  21615430.03900 113589851.52100     -2164.38100                
G22  23686787.45900 124474908.23300      2950.82400                
G23  20737012.21900 108973734.72100     -1173.89300                
G27  21290322.19800 111881398.28700      1921.57500                
G28  24148118.76300 126899220.60000     -3001.29500                
E01        11.88300        62.44500        14.85300                
E02        16.06000        84.39600         6.02200                
E03        22.07600       116.00800        -7.06900                
E04        24.49600       128.72600       -13.43300                
E05        15.78900        82.97300       -15.78800                
E06         4.46000        23.43800         0.78200                
> 2025 04 22 14 00 22.0000000  0 16
G03  24459849.44900 128537376.41200      1664.40600                
G09  24284008.24200 127613324.63300      -422.55500                
G14  20693269.48800 108743865.12000      -221.66800                
G15  24895315.68100 130825766.90600     -4064.09500                
G18  21942924.64200 115310847.27900      2551.76400                
G19  21615842.15300 113592017.19800     -2167.06900                
G22  23686225.82000 124471956.79900      2952.18800                
G23  20737235.67100 108974908.97400     -1174.67000                
G27  21289956.78800 111879478.04400      1918.88700                
G28  24148689.93400 126902222.12400     -3001.90800                
E01         9.20900        48.39500        13.13000                
E02        14.97700        78.70600         5.44800                
E03        23.27600       122.31800        -5.41400                
E04        26.82900       140.98700       -10.97100                
E05        18.60800        97.78700       -13.70500                
E06         5.36600        28.19800        -8.83500                
> 2025 04 22 14 00 23.0000000  0 16
G03  24459533.03600 128535713.64800      1660.98300                
G09  24284088.36200 127613745.66500      -419.47400                
G14  20693311.59100 108744086.37400      -220.76900                
G15  24896089.30500 130829832.32900     -4066.72400                
G18  21942438.80800 115308294.20400      2554.42500                
G19  21616254.82500 113594185.80500     -2170.21300                
G22  23685663.83700 124469003.55900      2954.41500                
G23  20737459.30300 108976084.16600     -1175.76800                
G27  21289591.89500 111877560.52100      1916.15900                
G28  24149261.30200 126905224.68300     -3003.35900                
E01         6.93400        36.44100        10.62400                
E02        13.94400        73.27500         5.54100                
E03        24.08800       126.58300        -3.00200                
E04        28.63100       150.45700        -7.87600                
E05        20.96100       110.15200       -10.92900                
E06         7.31900        38.46300       -10.86400                
> 2025 04 22 14 00 24.0000000  0 16
G03  24459217.34500 128534054.68000      1656.84800                
G09  24284167.88300 127614163.55200      -416.30500                
G14  20693353.48700 108744306.53700      -219.50600                
G15  24896863.39800 130833900.21400     -4068.99600                
G18  21941952.44700 115305738.35700      2557.27600                
G19  21616668.12600 113596357.71200     -2173.63900                
G22  23685101.35900 124466047.72000      2957.35600                
G23  20737683.17100 108977260.60000     -1177.14300                
G27  21289227.51500 111875645.69100      1913.52400                
G28  24149833.02100 126908229.08700     -3005.57900                
E01         5.24800        27.57800         6.80300                
E02        12.82000        67.36700         6.39500                
E03        24.38200       128.12900        -0.01000                
E04        29.79700       156.58500        -4.32100                
E05        22.73900       119.49400        -7.69800                
E06         9.32300        48.99100        -9.95600                
> 2025 04 22 14 00 25.0000000  0 16
G03  24458902.49100 128532400.11200      1652.22600                
G09  24284246.81200 127614578.32500      -413.28700                
G14  20693395.11700 108744525.30400      -218.00100                
G15  24897637.87800 130837970.13300     -4070.76900                
G18  21941465.53900 115303179.64200      2560.12800                
G19  21617082.09000 113598533.10700     -2177.15600                
G22  23684538.26900 124463088.66200      2960.81700                
G23  20737907.32200 108978438.52200     -1178.73200                
G27  21288863.61700 111873733.39400      1911.11100                
G28  24150405.22700 126911236.04800     -3008.45200                
E01         4.48400        23.56200         0.89500                
E02        11.47100        60.28100         7.85500                
E03        24.06900       126.48400         3.33800                
E04        30.25900       159.01400        -0.51300                
E05        23.87800       125.47800        -4.25500                
E06        11.06300        58.13800        -8.30200                
> 2025 04 22 14 00 26.0000000  0 16
G03  24458588.54200 128530750.30100      1647.37500                
G09  24284325.19900 127614990.25100      -410.64600                
G14  20693436.44900 108744742.50400      -216.39300                
G15  24898412.63900 130842041.52900     -4071.93500                
G18  21940978.10500 115300618.15600      2562.79000                
G19  21617496.71600 113600711.98300     -2180.56700                
G22  23683974.48900 124460125.97700      2964.56900                
G23  20738131.79000 108979618.10900     -1180.46000                
G27  21288500.14800 111871823.35300      1909.03300                
G28  24150978.02900 126914246.14400     -3011.81900                
E01         4.93800        25.94900        -5.44300                
E02         9.81500        51.57900         9.54400                
E03        23.10500       121.41700         6.79400                
E04        29.99000       157.60100         3.32600                
E05        24.36100       128.01800        -0.85400                
E06        12.48800        65.62700        -6.73500                
> 2025 04 22 14 00 27.0000000  0 16
G03  24458275.51800 128529105.34500      1642.56400                
G09  24284403.13600 127615399.81100      -408.58700                
G14  20693477.47600 108744958.10400      -214.82600                
G15  24899187.55800 130846113.75500     -4072.42200                
G18  21940490.19600 115298054.17800      2565.08300                
G19  21617911.96500 113602894.13500     -2183.68000                
G22  23683409.98700 124457159.49600      2968.36900                
G23  20738356.59300 108980799.45800     -1182.24300                
G27  21288137.03500 111869915.18100      1907.38400                
G28  24151551.50400 126917259.77700     -3015.49400                
E01         6.41900        33.73200        -9.77600                
E02         7.86600        41.33700        10.77500                
E03        21.49300       112.94500        10.10600                
E04        29.00600       152.42800         6.96900                
E05        24.22100       127.28300         2.25600                
E06        13.66100        71.78600        -5.69600                
> 2025 04 22 14 00 28.0000000  0 16
G03  24457963.38300 128527465.06700      1638.06200                
G09  24284480.75000 127615807.67500      -407.27900                
G14  20693518.22000 108745172.21800      -213.44300                
G15  24899962.50200 130850186.11500     -4072.20100                
G18  21940001.89900 115295488.15800      2566.85000                
G19  21618327.76600 113605079.18000     -2186.32400                
G22  23682844.77600 124454189.29500      2971.96800                
G23  20738581.73400 108981982.58100     -1183.99200                
G27  21287774.19000 111868008.41400      1906.23100                
G28  24152125.69200 126920277.15300     -3019.26800                
E01         8.56100        44.98600       -12.55200                
E02         5.84100        30.69600         9.90400                
E03        19.28400       101.33600        13.02600                
E04        27.36400       143.79900        10.20500                
E05        23.53600       123.68200         4.84100                
E06        14.70400        77.26900        -5.39900                
> 2025 04 22 14 00 29.0000000  0 16
G03  24457652.05600 128525829.03100      1634.11700                
G09  24284558.19600 127616214.65900      -406.84200                
G14  20693558.73000 108745385.09600      -212.37500                
G15  24900737.33800 130854257.90400     -4071.28600                
G18  21939513.32500 115292920.68600      2567.96900                
G19  21618744.01300 113607266.57400     -2188.35600                
G22  23682278.91900 124451215.69500      2975.13000                
G23  20738807.19800 108983167.40200     -1185.62400                
G27  21287411.51300 111866102.53700      1905.61000                
G28  24152700.59000 126923298.26400     -3022.92800                
E01        11.14200        58.55300       -14.46300                
E02         4.50700        23.68400         2.58600                
E03        16.57500        87.10300        15.31600                
E04        25.16000       132.21600        12.84900                
E05        22.42400       117.84000         6.71100                
E06        15.76100        82.82700        -5.82000                
> 2025 04 22 14 00 30.0000000  0 16
G03  24457341.40900 128524196.57100      1630.94400                
G09  24284635.64800 127616621.67400      -407.34600                
G14  20693599.07500 108745597.11000      -211.73200                
G15  24901511.93800 130858328.45400     -4069.73600                
G18  21939024.60700 115290352.45600      2568.35600                
G19  21619160.58000 113609455.64700     -2189.67100                
G22  23681712.51800 124448239.23900      2977.64700                
G23  20739032.95500 108984353.76100     -1187.05700                
G27  21287048.90400 111864197.01200      1905.52300                
G28  24153276.15800 126926322.89100     -3026.26800                
E01        14.02100        73.67800       -15.66600                
E02         5.21900        27.42700        -9.59500                
E03        13.51000        70.99700        16.72500                
E04        22.52000       118.34500        14.76100                
E05        21.03500       110.54200         7.74200                
E06        16.94700        89.05700        -6.67800                
> 2025 04 22 14 00 31.0000000  0 16
G03  24457031.27900 128522566.82700      1628.70800                
G09  24284713.28700 127617029.66700      -408.79800                
G14  20693639.34500 108745808.73100      -211.60000                
G15  24902286.19000 130862397.17500     -4067.64800                
G18  21938535.88800 115287784.22200      2567.97500                
G19  21619577.32400 113611645.65100     -2190.20900                
G22  23681145.71400 124445260.66100      2979.35200                
G23  20739258.96000 108985541.42700     -1188.22800                
G27  21286686.26300 111862291.31800      1905.94000                
G28  24153852.31500 126929350.62000     -3029.10200                
E01        17.05700        89.63300       -16.11000                
E02         7.70400        40.48500       -15.44500                
E03        10.28800        54.06600        16.88300                
E04        19.59400       102.96800        15.85200                
E05        19.53200       102.64100         7.92600                
E06        18.30300        96.18200        -7.53300                
> 2025 04 22 14 00 32.0000000  0 16
G03  24456721.47600 128520938.80200      1627.51800                
G09  24284791.28900 127617439.56900      -411.14900                
G14  20693679.64300 108746020.49800      -212.03100                
G15  24903060.00300 130866463.59300     -4065.15300                
G18  21938047.31500 115285216.75200      2566.83600                
G19  21619994.09400 113613835.79500     -2189.95700                
G22  23680578.67200 124442280.83600      2980.12500                
G23  20739485.15900 108986730.11100     -1189.08600                
G27  21286323.49800 111860384.98000      1906.79900                
G28  24154428.95100 126932380.86200     -3031.27400                
E01        20.09900       105.62300       -15.72700                
E02        10.83000        56.91200       -16.96900                
E03         7.21900        37.93400        14.87300                
E04        16.54100        86.92500        16.09300                
E05        18.06400        94.92500         7.41000                
E06        19.78600       103.97500        -7.94900                
> 2025 04 22 14 00 33.0000000  0 16
G03  24456411.79600 128519311.42300      1627.41700                
G09  24284869.81500 127617852.23000      -414.29300                
G14  20693720.07800 108746232.98800      -213.04400                
G15  24903833.31600 130870527.37700     -4062.40700                
G18  21937559.02600 115282650.77700      2564.99600                
G19  21620410.74400 113616025.30700     -2188.95300                
G22  23680011.57700 124439300.73100      2979.90800                
G23  20739711.48900 108987919.48200     -1189.60000                
G27  21285960.53600 111858477.59700      1908.01200                
G28  24155005.92800 126935412.89700     -3032.67000                
E01        22.98800       120.80400       -14.49500                
E02        14.04300        73.79500       -16.56200                
E03         4.93900        25.95300         7.88100                
E04        13.52100        71.05500        15.51600                
E05        16.73600        87.94600         6.52200                
E06        21.28100       111.83300        -7.62900                
> 2025 04 22 14 00 34.0000000  0 16
G03  24456102.03400 128517683.60900      1628.38000                
G09  24284949.00400 127618268.36900      -418.07600                
G14  20693760.76000 108746446.77400      -214.62000                
G15  24904606.09500 130874588.36000     -4059.58200                
G18  21937071.14600 115280086.95100      2562.55700                
G19  21620827.13800 113618213.47100     -2187.28000                
G22  23679444.61700 124436321.34000      2978.70200                
G23  20739937.88300 108989109.19000     -1189.76100                
G27  21285597.31700 111856568.87000      1909.46700                
G28  24155583.09200 126938445.91000     -3033.22500                
E01        25.56400       134.34200       -12.45200                
E02        17.06000        89.64900       -14.98500                
E03         4.62000        24.27900        -4.47400                
E04        10.68400        56.14200        14.19200                
E05        15.57700        81.85600         5.70900                
E06        22.63500       118.94500        -6.45200                
> 2025 04 22 14 00 35.0000000  0 16
G03  24455791.99300 128516054.33500      1630.31500                
G09  24285028.95800 127618688.53000      -422.30200                
G14  20693801.79200 108746662.39800      -216.70700                
G15  24905378.34300 130878646.55300     -4056.85400                
G18  21936583.77700 115277525.80900      2559.65600                
G19  21621243.16000 113620399.67900     -2185.06400                
G22  23678877.97700 124433343.62500      2976.57100                
G23  20740164.27500 108990298.88900     -1189.58300                
G27  21285233.80800 111854658.61900      1911.03900                
G28  24156160.27900 126941479.05000     -3032.92600                
E01        27.68200       145.47000        -9.69700                
E02        19.69300       103.48600       -12.57200                
E03         6.16500        32.39800       -10.34000                
E04         8.16500        42.90600        12.15600                
E05        14.53100        76.36000         5.39600                
E06        23.68400       124.46100        -4.45200                
> 2025 04 22 14 00 36.0000000  0 16
G03  24455481.50300 128514422.70100      1633.07200                
G09  24285109.74100 127619113.04700      -426.75000                
G14  20693843.26300 108746880.33000      -219.21900                
G15  24906150.09600 130882702.13800     -4054.39500                
G18  21936096.99100 115274967.72900      2556.46200                
G19  21621658.72000 113622583.46500     -2182.46500                
G22  23678311.82100 124430368.45600      2973.63500                
G23  20740390.60300 108991488.25200     -1189.09900                
G27  21284870.00000 111852746.79300      1912.59300                
G28  24156737.33100 126944511.47800     -3031.81100                
E01        29.21900       153.54700        -6.37900                
E02        21.80700       114.59600        -9.56900                
E03         8.20900        43.13600       -10.64800                
E04         6.11500        32.13400         9.18500                
E05        13.47600        70.81600         5.82200                
E06        24.28500       127.61800        -1.76300                
> 2025 04 22 14 00 37.0000000  0 16
G03  24455170.42600 128512787.98100      1636.44900                
G09  24285191.37300 127619542.02400      -431.18200                
G14  20693885.24400 108747100.94100      -222.04600                
G15  24906921.41800 130886755.46300     -4052.35800                
G18  21935610.82600 115272412.91400      2553.15800                
G19  21622073.76400 113624764.53600     -2179.66500                
G22  23677746.28700 124427396.55600      2970.06500                
G23  20740616.81400 108992676.99900     -1188.36200                
G27  21284505.90800 111850833.47800      1913.99800                
G28  24157314.10000 126947542.41900     -3029.97200                
E01        30.08600       158.10300        -2.68800                
E02        23.31200       122.50800        -6.21600                
E03        10.11500        53.15700        -9.26700                
E04         4.77800        25.11000         4.49500                
E05        12.26900        64.47200         6.97100                
E06        24.32400       127.82500         1.41200                
> 2025 04 22 14 00 38.0000000  0 16
G03  24454858.66700 128511149.67300      1640.20400                
G09  24285273.82800 127619975.32800      -435.36600                
G14  20693927.78300 108747324.48300      -225.05700                
G15  24907692.40300 130890807.01600     -4050.87000                
G18  21935125.28400 115269861.37700      2549.93800                
G19  21622488.27200 113626942.78800     -2176.86100                
G22  23677181.47700 124424428.45600      2966.07300                
G23  20740842.86700 108993864.91200     -1187.44100                
G27  21284141.57300 111848918.88300      1915.13100                
G28  24157890.46000 126950571.21300     -3027.54400                
E01        30.23200       158.87000         1.16100                
E02        24.16600       126.99400        -2.76000                
E03        11.71700        61.57500        -7.58000                
E04         4.53000        23.80400        -2.01300                
E05        10.79200        56.71500         8.58900                
E06        23.73200       124.71000         4.83800                
> 2025 04 22 14 00 39.0000000  0 16
G03  24454546.17800 128509507.53100      1644.07300                
G09  24285357.03700 127620412.59800      -439.07900                
G14  20693970.90100 108747551.06900      -228.10900                
G15  24908463.16500 130894857.39700     -4050.02600                
G18  21934640.33300 115267312.94000      2546.98700                
G19  21622902.26100 113629118.31700     -2174.24800                
G22  23676617.44700 124421464.46200      2961.89300                
G23  20741068.73200 108995051.84500     -1186.41700                
G27  21283777.05700 111847003.33700      1915.88600                
G28  24158466.31600 126953597.35600     -3024.69900                
E01        29.64800       155.80300         4.94200                
E02        24.37300       128.07900         0.54400                
E03        13.02100        68.42300        -6.20200                
E04         5.47800        28.78500        -7.58000                
E05         9.00000        47.29400        10.19400                
E06        22.48300       118.14900         8.26200                
> 2025 04 22 14 00 40.0000000  0 16
G03  24454232.96300 128507861.57700      1647.78500                
G09  24285440.89400 127620853.26600      -442.13300                
G14  20694014.59200 108747780.66700      -231.05900                
G15  24909233.83200 130898907.28100     -4049.87900                
G18  21934155.90400 115264767.24700      2544.47700                
G19  21623315.78600 113631291.40500     -2172.01100                
G22  23676054.21200 124418504.63800      2957.77500                
G23  20741294.40000 108996237.73800     -1185.37500                
G27  21283412.43900 111845087.26100      1916.18000                
G28  24159041.60600 126956620.52600     -3021.63400                
E01        28.36900       149.08200         8.43300                
E02        23.98400       126.03700         3.45300                
E03        14.11900        74.19800        -5.47200                
E04         7.28200        38.26600       -11.11500                
E05         6.97100        36.63500        10.82800                
E06        20.60300       108.26900        11.43400                
> 2025 04 22 14 00 41.0000000  0 16
G03  24453919.07800 128506212.09800      1651.07800                
G09  24285525.25600 127621296.59300      -444.37700                
G14  20694058.82400 108748013.10600      -233.76800                
G15  24910004.53800 130902957.37100     -4050.43900                
G18  21933671.89900 115262223.78400      2542.54800                
G19  21623728.93400 113633462.51200     -2170.31100                
G22  23675491.73400 124415548.79800      2953.96400                
G23  20741519.87600 108997422.61800     -1184.40500                
G27  21283047.81500 111843171.14400      1915.95900                
G28  24159616.30900 126959640.61000     -3018.56200                
E01        26.47000       139.10100        11.43300                
E02        23.09700       121.37700         5.74900                
E03        15.15200        79.62400        -5.50500                
E04         9.63400        50.63000       -13.47000                
E05         5.09800        26.78900         7.86200                
E06        18.16300        95.44600        14.11000                
> 2025 04 22 14 00 42.0000000  0 16
G03  24453604.62500 128504559.63600      1653.71600                
G09  24285609.96000 127621741.71600      -445.71200                
G14  20694103.53800 108748248.08100      -236.11200                
G15  24910775.41600 130907008.36300     -4051.67200                
G18  21933188.19700 115259681.91300      2541.30800                
G19  21624141.82000 113635632.24200     -2169.27400                
G22  23674929.93500 124412596.52200      2950.68300                
G23  20741745.18000 108998606.59900     -1183.59000                
G27  21282683.28300 111841255.51700      1915.20200                
G28  24160190.44300 126962657.70600     -3015.69300                
E01        24.06000       126.43600        13.77500                
E02        21.84600       114.80100         7.26400                
E03        16.25500        85.41900        -6.16300                
E04        12.36100        64.96000       -15.07400                
E05         4.52000        23.75500        -3.01000                
E06        15.27900        80.29400        16.05100                
> 2025 04 22 14 00 43.0000000  0 16
G03  24453289.74700 128502904.94600      1655.50500                
G09  24285694.82800 127622187.69900      -446.09600                
G14  20694148.65500 108748485.17400      -237.99000                
G15  24911546.58700 130911060.89400     -4053.50300                
G18  21932704.66000 115257140.90800      2540.82000                
G19  21624554.57900 113637801.30400     -2168.98700                
G22  23674368.69300 124409647.17900      2948.12600                
G23  20741970.34900 108999789.87200     -1183.00300                
G27  21282318.94500 111839340.91200      1913.91900                
G28  24160764.06700 126965672.12000     -3013.22900                
E01        21.27700       111.81200        15.33800                
E02        20.38800       107.13700         7.92000                
E03        17.51400        92.03700        -7.07800                
E04        15.32600        80.53800       -15.95800                
E05         6.15900        32.36600       -12.94000                
E06        12.11800        63.68000        16.97800                
> 2025 04 22 14 00 44.0000000  0 16
G03  24452974.62300 128501248.95400      1656.30300                
G09  24285779.67900 127622633.59600      -445.54500                
G14  20694194.08000 108748723.88200      -239.33200                
G15  24912318.15500 130915115.50900     -4055.81800                
G18  21932221.14200 115254600.00700      2541.10100                
G19  21624967.35800 113639970.47400     -2169.49000                
G22  23673807.85800 124406699.96800      2946.44000                
G23  20742195.43400 109000972.69900     -1182.70400                
G27  21281954.89900 111837427.83500      1912.15600                
G28  24161337.27400 126968684.34500     -3011.34100                
E01        18.27600        96.04200        16.05900                
E02        18.88300        99.23000         7.77200                
E03        18.93500        99.50600        -7.79000                
E04        18.38400        96.61000       -16.04900                
E05         9.02400        47.42000       -16.43500                
E06         8.91300        46.83900        16.37600                
> 2025 04 22 14 00 45.0000000  0 16
G03  24452659.44700 128499592.69600      1656.02800                
G09  24285864.34200 127623078.50100      -444.13200                
G14  20694239.70500 108748963.64600      -240.09800                
G15  24913090.19800 130919172.62400     -4058.47500                
G18  21931737.50000 115252058.45200      2542.11900                
G19  21625380.30800 113642140.54000     -2170.77300                
G22  23673247.25200 124403753.96600      2945.71800                
G23  20742420.49200 109002155.39000     -1182.73600                
G27  21281591.22800 111835516.73200      1909.98500                
G28  24161910.18900 126971695.03100     -3010.17000                
E01        15.21900        79.97400        15.93900                
E02        17.46700        91.78800         7.04500                
E03        20.44100       107.41800        -7.91300                
E04        21.38000       112.35500       -15.29700                
E05        12.23200        64.28200       -16.96800                
E06         6.07300        31.91300        12.72000                
> 2025 04 22 14 00 46.0000000  0 16
G03  24452344.42800 128497937.25700      1654.66800                
G09  24285948.66400 127623521.61600      -441.98700                
G14  20694285.42100 108749203.88600      -240.28700                
G15  24913862.76700 130923232.49800     -4061.31000                
G18  21931253.60000 115249515.54000      2543.79800                
G19  21625793.57200 113644312.25700     -2172.77900                
G22  23672686.68900 124400808.18800      2945.99300                
G23  20742645.59000 109003338.28700     -1183.12000                
G27  21281228.00200 111833607.96400      1907.50600                
G28  24162482.95600 126974704.94500     -3009.80900                
E01        12.26000        64.42800        15.02900                
E02        16.21400        85.20300         6.13200                
E03        21.89500       115.05900        -7.22500                
E04        24.15300       126.92400       -13.70500                
E05        15.38800        80.86300       -15.99900                
E06         4.50200        23.65800         2.54200                
> 2025 04 22 14 00 47.0000000  0 16
G03  24452029.76700 128496283.70200      1652.27500                
G09  24286032.52100 127623962.28900      -439.28300                
G14  20694331.12100 108749444.03700      -239.93000                
G15  24914635.87800 130927295.22300     -4064.14700                
G18  21930769.32700 115246970.66700      2546.01900                
G19  21626207.27800 113646486.29800     -2175.40300                
G22  23672125.98100 124397861.64500      2947.23600                
G23  20742870.79400 109004521.74500     -1183.85400                
G27  21280865.26700 111831701.78000      1904.83700                
G28  24163055.73600 126977714.92300     -3010.30100                
E01         9.54400        50.15600        13.40000                
E02        15.11500        79.43200         5.49100                
E03        23.13600       121.58200        -5.68000                
E04        26.54700       139.50600       -11.33800                
E05        18.25800        95.94700       -14.02700                
E06         5.15200        27.07300        -8.08900                
> 2025 04 22 14 00 48.0000000  0 16
G03  24451715.65000 128494633.01000      1648.96700                
G09  24286115.82700 127624400.06300      -436.22700                
G14  20694376.70500 108749683.58600      -239.09500                
G15  24915409.51500 130931360.71300     -4066.81100                
G18  21930284.59100 115244423.36400      2548.63000                
G19  21626621.53200 113648663.21700     -2178.50500                
G22  23671564.95000 124394913.41000      2949.35900                
G23  20743096.17100 109005706.10400     -1184.91800                
G27  21280503.04800 111829798.30700      1902.10800                
G28  24163628.69100 126980725.81800     -3011.63700                
E01         7.20800        37.87700        11.01400                
E02        14.08300        74.00600         5.48400                
E03        24.00800       126.16100        -3.36000                
E04        28.42600       149.38200        -8.31700                
E05        20.68000       108.67500       -11.32900                
E06         7.04500        37.02200       -10.84300                
> 2025 04 22 14 00 49.0000000  0 16
G03  24451402.23700 128492986.01200      1644.91900                
G09  24286198.53600 127624834.70100      -433.04900                
G14  20694422.09300 108749922.10000      -237.87900                
G15  24916183.62900 130935428.71100     -4069.13700                
G18  21929799.33500 115241873.32600      2551.45700                
G19  21627036.40800 113650843.40500     -2181.91300                
G22  23671003.44300 124391962.67100      2952.21700                
G23  20743321.77700 109006891.67400     -1186.26700                
G27  21280141.34300 111827897.53600      1899.45300                
G28  24164201.97500 126983738.44700     -3013.75500                
E01         5.42800        28.52200         7.42200                
E02        12.97900        68.20600         6.24100                
E03        24.37600       128.09900        -0.43300                
E04        29.68200       155.97900        -4.81200                
E05        22.53900       118.44200        -8.14400                
E06         9.06900        47.65700       -10.14600                
> 2025 04 22 14 00 50.0000000  0 16
G03  24451089.64700 128491343.34100      1640.35200                
G09  24286280.64700 127625266.20100      -429.98900                
G14  20694467.22200 108750159.25600      -236.40200                
G15  24916958.14200 130939498.80500     -4070.98100                
G18  21929313.53600 115239320.43400      2554.30800                
G19  21627451.94700 113653027.07500     -2185.43700                
G22  23670441.33700 124389008.78400      2955.62000                
G23  20743547.66300 109008078.71200     -1187.84200                
G27  21279780.12700 111825999.32900      1897.00100                
G28  24164775.72800 126986753.54100     -3016.54400                
E01         4.51800        23.74000         1.78000                
E02        11.66700        61.30900         7.63700                
E03        24.14800       126.89700         2.88200                
E04        30.24000       158.91200        -1.02500                
E05        23.76400       124.88200        -4.71500                
E06        10.85100        57.02100        -8.52900                
> 2025 04 22 14 00 51.0000000  0 16
G03  24450777.95600 128489705.39300      1635.51800                
G09  24286362.20600 127625694.79500      -427.27500                
G14  20694512.05700 108750394.86200      -234.80100                
G15  24917732.95100 130943570.45400     -4072.23000                
G18  21928827.20700 115236764.75800      2556.99400                
G19  21627868.15100 113655214.24400     -2188.87900                
G22  23669878.54900 124386051.31200      2959.34600                
G23  20743773.86400 109009267.40700     -1189.56800                
G27  21279419.34800 111824103.42200      1894.86900                
G28  24165350.06400 126989771.69700     -3019.85100                
E01         4.81000        25.27600        -4.70000                
E02        10.05300        52.83100         9.32600                
E03        23.27100       122.28900         6.33800                
E04        30.06800       158.00900         2.82300                
E05        24.33400       127.87600        -1.29400                
E06        12.31600        64.72100        -6.92000                
> 2025 04 22 14 00 52.0000000  0 16
G03  24450467.18900 128488072.30100      1630.68700                
G09  24286443.29800 127626120.93700      -425.11700                
G14  20694556.58600 108750628.86400      -233.21900                
G15  24918507.93500 130947643.02000     -4072.80700                
G18  21928340.39700 115234206.55400      2559.33400                
G19  21628284.98800 113657404.73400     -2192.04600                
G22  23669315.04000 124383090.05400      2963.15100                
G23  20744000.40100 109010457.86900     -1191.36000                
G27  21279058.93600 111822209.44800      1893.15300                
G28  24165925.06400 126992793.34400     -3023.49300                
E01         6.17800        32.46500        -9.31300                
E02         8.13700        42.76200        10.67900                
E03        21.74300       114.25800         9.68300                
E04        29.17600       153.32200         6.50400                
E05        24.27300       127.55700         1.86800                
E06        13.51500        71.02400        -5.79300                
> 2025 04 22 14 00 53.0000000  0 16
G03  24450157.31900 128486443.92600      1626.12700                
G09  24286524.04700 127626545.27300      -423.68900                
G14  20694600.82700 108750861.35500      -231.80100                
