     3.05           OBSERVATION DATA    M                   RINEX VERSION / TYPE
GSPF V1.7.0                             20250903 143845 UTC PGM / RUN BY / DATE
V101                                                        MARKER NAME
NON_GEODETIC                                                MARKER TYPE
                                                            OBSERVER / AGENCY
                                                            REC # / TYPE / VERS
                                                            ANT # / TYPE
  4181974.0519   860791.0227  4723076.5110                  APPROX POSITION XYZ
        0.0000        0.0000        0.0000                  ANTENNA: DELTA H/E/N
G    4 C1C L1C D1C S1C                                      SYS / # / OBS TYPES
E    4 C1B L1B D1B S1B                                      SYS / # / OBS TYPES
  2025     4    22    14     0    1.0000000     GPS         TIME OF FIRST OBS
G L1C  0.00000   0                                          SYS / PHASE SHIFT
E L1B  0.00000   0                                          SYS / PHASE SHIFT
 C1C    0.000 C1P    0.000 C2C    0.000 C2P    0.000        GLONASS COD/PHS/BIS
                                                            END OF HEADER
> 2025 04 22 14 00  1.0000000  0 16
G03  24466452.83500 128572077.43800      1656.14000                
G09  24282368.88200 127604709.73600      -387.37300                
G14  20692449.66300 108739556.91200      -196.19300                
G15  24879093.65300 130740519.57000     -4077.62700                
G18  21953157.98600 115364623.86500      2573.24300                
G19  21607163.02400 113546408.06700     -2176.45700                
G22  23698097.84800 124534344.73100      2971.83500                
G23  20732532.27100 108950192.43600     -1171.73300                
G27  21297647.76800 111919894.41700      1918.83600                
G28  24136642.28500 126838911.29800     -3003.20000                
E01         5.75400        30.23900       -12.42200                
E02        11.70700        61.51900        16.02200                
E03        31.26900       164.31900        12.55400                
E04        41.40700       217.59700         8.17600                
E05        33.17500       174.33600         2.39700                
E06        16.12100        84.71600        -7.78400                
> 2025 04 22 14 00  2.0000000  0 16
G03  24466138.55700 128570425.89500      1647.07200                
G09  24282442.14600 127605094.74300      -382.92800                
G14  20692486.62700 108739751.16000      -192.38100                
G15  24879869.68300 130744597.63600     -4078.26200                
G18  21952667.85400 115362048.20400      2577.86700                
G19  21607577.75000 113548587.46500     -2182.16300                
G22  23697531.57800 124531368.95800      2979.61300                
G23  20732755.54800 108951365.76600     -1174.91400                
G27  21297282.88100 111917976.92300      1916.33500                
G28  24137214.44900 126841918.04400     -3010.32700                
E01         8.83600        46.43200       -19.38500                
E02         8.29800        43.60700        19.25800                
E03        28.19900       148.18400        19.55700                
E04        39.12400       205.60000        15.64500                
E05        32.09200       168.64200         8.75700                
E06        17.42300        91.56000        -6.35000                
> 2025 04 22 14 00  3.0000000  0 16
G03  24465825.90600 128568782.90600      1639.15500                
G09  24282514.74200 127605476.23400      -380.40300                
G14  20692522.92300 108739941.89300      -189.22400                
G15  24880645.68300 130748675.54500     -4077.31600                
G18  21952176.97100 115359468.59600      2581.07500                
G19  21607993.44300 113550771.94700     -2186.55300                
G22  23696963.89900 124528385.78600      2986.51700                
G23  20732979.41300 108952542.18600     -1177.87000                
G27  21296918.35800 111916061.34400      1915.02700                
G28  24137787.96500 126844931.88900     -3017.29700                
E01        12.99700        68.29900       -24.08900                
E02         4.96000        26.06700        12.19000                
E03        23.90900       125.64100        25.25600                
E04        35.53900       186.75600        21.77100                
E05        29.95400       157.40900        13.35900                
E06        18.71400        98.34400        -7.65300                
> 2025 04 22 14 00  4.0000000  0 16
G03  24465514.59900 128567146.97700      1633.04900                
G09  24282587.06300 127605856.28700      -380.08300                
G14  20692558.70800 108740129.94300      -187.06900                
G15  24881421.35900 130752751.74900     -4074.87700                
G18  21951685.63800 115356886.62000      2582.56300                
G19  21608409.81600 113552960.00500     -2189.26800                
G22  23696395.04100 124525396.41700      2991.91300                
G23  20733203.80100 108953721.35100     -1180.36900                
G27  21296553.96500 111914146.44400      1914.97600                
G28  24138362.74500 126847952.37700     -3023.51800                
E01        17.90300        94.08400       -27.19000                
E02         5.58900        29.36900       -18.63600                
E03        18.71100        98.32800        28.98700                
E04        30.95600       162.67700        26.04600                
E05        27.15800       142.71500        15.59900                
E06        20.46100       107.52500       -10.89300                
> 2025 04 22 14 00  5.0000000  0 16
G03  24465204.24100 128565516.03100      1629.25700                
G09  24282659.54200 127606237.16500      -382.05200                
G14  20692594.19900 108740316.45200      -186.17300                
G15  24882196.44500 130756824.85200     -4071.16300                
G18  21951194.19800 115354304.08700      2582.17800                
G19  21608826.52900 113555149.84500     -2190.09400                
G22  23695825.34000 124522402.61900      2995.30300                
G23  20733428.60500 108954902.70600     -1182.22100                
G27  21296189.46500 111912230.98100      1916.13700                
G28  24138938.59500 126850978.48800     -3028.46500                
E01        23.22200       122.03400       -28.35900                
E02        10.39500        54.62400       -28.95600                
E03        13.05000        68.57700        29.95700                
E04        25.76400       135.39000        28.15300                
E05        24.18500       127.09500        15.20600                
E06        22.86200       120.14200       -14.17900                
> 2025 04 22 14 00  6.0000000  0 16
G03  24464894.35800 128563887.58900      1628.07100                
G09  24282732.60600 127606621.11800      -386.19600                
G14  20692629.65200 108740502.75800      -186.67900                
G15  24882970.72800 130760893.73900     -4066.50800                
G18  21950703.01000 115351722.87700      2579.93600                
G19  21609243.21500 113557339.54200     -2188.99000                
G22  23695255.21200 124519406.57600      2996.36800                
G23  20733653.69000 108956085.53200     -1183.29500                
G27  21295824.63900 111910313.81200      1918.35500                
G28  24139515.23100 126854008.73200     -3031.72700                
E01        28.55600       150.06200       -27.32000                
E02        16.06300        84.41400       -29.85700                
E03         7.62300        40.05700        25.69800                
E04        20.38500       107.12600        28.00600                
E05        21.51500       113.06400        12.56500                
E06        25.74600       135.29500       -15.73700                
> 2025 04 22 14 00  7.0000000  0 16
G03  24464584.44700 128562258.99200      1629.55500                
G09  24282806.64200 127607010.17900      -392.20000                
G14  20692665.33700 108740690.28500      -188.60800                
G15  24883744.06900 130764957.67300     -4061.33000                
G18  21950212.41200 115349144.76700      2576.01900                
G19  21609659.51500 113559527.21600     -2186.08300                
G22  23694685.11300 124516410.68800      2994.99400                
G23  20733878.89800 108957269.01200     -1183.52500                
G27  21295459.31100 111908393.99800      1921.38000                
G28  24140092.30500 126857041.27900     -3033.04200                
E01        33.47700       175.92500       -24.04200                
E02        21.54400       113.21700       -27.30100                
E03         4.46200        23.45000         2.36700                
E04        15.23800        80.07700        25.77000                
E05        19.46100       102.26700         9.04400                
E06        28.68800       150.75400       -14.73700                
> 2025 04 22 14 00  8.0000000  0 16
G03  24464274.01100 128560627.64300      1633.52900                
G09  24282881.96000 127607405.98100      -399.58900                
G14  20692701.51700 108740880.41300      -191.85100                
G15  24884516.41100 130769016.35900     -4056.09300                
G18  21949722.69400 115346571.28000      2570.75800                
G19  21610075.11300 113561711.19700     -2181.66600                
G22  23694115.50100 124513417.35600      2991.28900                
G23  20734104.07100 108958452.30300     -1182.92600                
G27  21295093.35500 111906470.88600      1924.89100                
G28  24140669.43700 126860074.12500     -3032.32500                
E01        37.57700       197.46900       -18.73700                
E02        26.30900       138.25400       -22.45000                
E03         6.57900        34.57100       -18.56100                
E04        10.68700        56.16200        21.80000                
E05        18.00100        94.59700         6.63900                
E06        31.19200       163.91400       -11.18900                
> 2025 04 22 14 00  9.0000000  0 16
G03  24463962.61300 128558991.23100      1639.59700                
G09  24282958.77000 127607809.61800      -407.76000                
G14  20692738.42200 108741074.35100      -196.18300                
G15  24885287.78900 130773069.97500     -4051.26600                
G18  21949234.06900 115344003.54200      2564.60300                
G19  21610489.75900 113563890.17800     -2176.16300                
G22  23693546.79300 124510428.77300      2985.56700                
G23  20734329.05700 108959634.61300     -1181.58200                
G27  21294726.71300 111904544.17100      1928.52300                
G28  24141246.24400 126863105.26900     -3029.67000                
E01        40.50700       212.86400       -11.83000                
E02        29.98600       157.57500       -15.97700                
E03        10.17800        53.48300       -17.94400                
E04         7.04400        37.01700        16.14400                
E05        16.77000        88.12500         6.77400                
E06        32.81400       172.44000        -5.57200                
> 2025 04 22 14 00 10.0000000  0 16
G03  24463649.90500 128557347.94300      1647.17000                
G09  24283037.15600 127608221.53800      -416.04100                
G14  20692776.23100 108741273.03600      -201.28300                
G15  24886058.32100 130777119.15200     -4047.28200                
G18  21948746.65900 115341442.18600      2558.08600                
G19  21610903.29600 113566063.32800     -2170.09700                
G22  23692979.32700 124507446.72100      2978.32100                
G23  20734553.72800 108960815.26800     -1179.64700                
G27  21294359.39800 111902613.91900      1931.90300                
G28  24141822.38200 126866132.89400     -3025.34300                
E01        42.01400       220.78700        -3.90200                
E02        32.33000       169.89700        -8.57400                
E03        13.19500        69.33800       -13.59100                
E04         4.77800        25.10900         6.65900                
E05        15.25600        80.17000         9.50800                
E06        33.22500       174.59900         1.42000                
> 2025 04 22 14 00 11.0000000  0 16
G03  24463335.67000 128555696.62500      1655.52900                
G09  24283117.07400 127608641.51000      -423.75200                
G14  20692815.05200 108741477.04300      -206.75900                
G15  24886828.20600 130781164.92000     -4044.49900                
G18  21948260.48000 115338887.29400      2551.77000                
G19  21611315.67000 113568230.36900     -2164.04000                
G22  23692413.33600 124504472.41700      2970.18400                
G23  20734777.99100 108961993.77700     -1177.32700                
G27  21293991.49300 111900680.56400      1934.67600                
G28  24142397.57000 126869155.52600     -3019.76400                
E01        41.97000       220.55600         4.36200                
E02        33.23800       174.66800        -1.00500                
E03        15.35700        80.70000        -9.30100                
E04         4.85300        25.50200        -7.36600                
E05        13.04800        68.56600        13.85200                
E06        32.23700       169.40400         9.00100                
> 2025 04 22 14 00 12.0000000  0 16
G03  24463019.83200 128554036.88400      1663.88200                
G09  24283198.35400 127609068.64100      -430.26200                
G14  20692854.91800 108741686.53900      -212.18800                
G15  24887597.69500 130785208.61500     -4043.16800                
G18  21947775.43900 115336338.38800      2546.20000                
G19  21611726.93800 113570391.59800     -2158.56700                
G22  23691848.92200 124501506.40200      2961.86500                
G23  20735001.79500 108963169.87200     -1174.86200                
G27  21293623.14200 111898744.86600      1936.54400                
G28  24142971.61800 126872172.16800     -3013.45900                
E01        40.37800       212.18900        12.25000                
E02        32.75300       172.11900         5.93000                
E03        16.84200        88.50600        -6.69300                
E04         7.21800        37.93100       -16.52500                
E05         9.98500        52.47000        18.13900                
E06        29.81300       156.66800        16.37100                
> 2025 04 22 14 00 13.0000000  0 16
G03  24462702.46700 128552369.12300      1671.44100                
G09  24283280.71600 127609501.45700      -435.04800                
G14  20692895.77800 108741901.26300      -217.14900                
G15  24888367.08000 130789251.76100     -4043.40800                
G18  21947291.34900 115333794.47700      2541.85400                
G19  21612137.26200 113572547.86500     -2154.19600                
G22  23691286.05100 124498548.49300      2954.09100                
G23  20735225.13600 108964343.53600     -1172.50600                
G27  21293254.54000 111896807.84700      1937.28900                
G28  24143544.44400 126875182.38800     -3007.02300                
E01        37.37500       196.40800        19.08200                
E02        31.07100       163.28200        11.44800                
E03        18.07300        94.97500        -6.71400                
E04        10.92100        57.39000       -22.06300                
E05         6.38200        33.53700        18.25800                
E06        26.06800       136.98700        22.77100                
> 2025 04 22 14 00 14.0000000  0 16
G03  24462383.79800 128550694.50500      1677.48400                
G09  24283363.79400 127609938.03500      -437.73900                
G14  20692937.50800 108742120.55400      -221.26400                
G15  24889136.66000 130793295.93000     -4045.20000                
G18  21946807.93900 115331254.14000      2539.10000                
G19  21612546.89400 113574700.49300     -2151.34900                
G22  23690724.55300 124495597.80000      2947.54000                
G23  20735448.05800 108965515.00100     -1170.50300                
G27  21292885.91200 111894870.69800      1936.79400                
G28  24144116.08000 126878186.36000     -3001.06100                
E01        33.22000       174.57000        24.28300                
E02        28.53000       149.92700        14.86300                
E03        19.55900       102.78300        -9.23000                
E04        15.51400        81.52500       -25.94500                
E05         4.49800        23.63900        -4.41800                
E06        21.25200       111.68000        27.51200                
> 2025 04 22 14 00 15.0000000  0 16
G03  24462064.17100 128549014.85200      1681.43000                
G09  24283447.16900 127610376.17300      -438.15300                
G14  20692979.91600 108742343.40700      -224.23000                
G15  24889906.71700 130797342.60700     -4048.38600                
G18  21946324.88200 115328715.66100      2538.16500                
G19  21612956.15300 113576851.16300     -2150.31300                
G22  23690164.13800 124492652.80300      2942.78000                
G23  20735670.65000 108966684.73000     -1169.06500                
G27  21292517.49900 111892934.67100      1935.05300                
G28  24144686.67300 126881184.84400     -2996.13500                
E01        28.26400       148.52700        27.43900                
E02        25.57900       134.41600        15.71400                
E03        21.65100       113.77700       -12.75400                
E04        20.68400       108.69600       -28.07200                
E05         7.89900        41.51200       -26.21000                
E06        15.74500        82.73900        29.91600                
> 2025 04 22 14 00 16.0000000  0 16
G03  24461744.02500 128547332.47600      1682.88000                
G09  24283530.40600 127610813.58800      -436.31200                
G14  20693022.76100 108742568.56400      -225.84800                
G15  24890677.49100 130801393.05300     -4052.68300                
G18  21945841.82400 115326177.17300      2539.11300                
G19  21613365.39800 113579001.76000     -2151.21100                
G22  23689604.42600 124489711.49300      2940.22000                
G23  20735893.03500 108967853.37300     -1168.35500                
G27  21292149.52800 111891000.97000      1932.16800                
G28  24145256.46500 126884179.12200     -2992.71600                
E01        22.92000       120.44400        28.35000                
E02        22.71300       119.35500        14.02700                
E03        24.34900       127.95300       -15.29500                
E04        26.06400       136.96500       -28.09500                
E05        13.37000        70.25700       -29.99900                
E06        10.08700        53.00700        28.74300                
> 2025 04 22 14 00 17.0000000  0 16
G03  24461423.85700 128545649.98000      1681.66300                
G09  24283613.09500 127611248.11700      -432.43600                
G14  20693065.78000 108742794.62500      -226.03700                
G15  24891449.15900 130805448.19600     -4057.70800                
G18  21945358.41300 115323636.83300      2541.83900                
G19  21613774.99500 113581154.20900     -2153.99500                
G22  23689044.97200 124486771.54600      2940.07100                
G23  20736115.36300 108969021.71300     -1168.46900                
G27  21291782.19900 111889070.64300      1928.34700                
G28  24145825.77800 126887170.88100     -2991.14000                
E01        17.61400        92.56200        27.06400                
E02        20.34700       106.92400        10.69000                
E03        27.32400       143.59000       -15.54300                
E04        31.23300       164.13100       -25.86200                
E05        19.02000        99.94800       -28.84100                
E06         5.39700        28.35900        17.35700                
> 2025 04 22 14 00 18.0000000  0 16
G03  24461104.17100 128543970.01800      1677.84100                
G09  24283694.88200 127611677.91500      -426.93000                
G14  20693108.70000 108743020.17500      -224.84400                
G15  24892221.81800 130809508.54400     -4063.01500                
G18  21944874.33400 115321092.98100      2546.08000                
G19  21614185.28600 113583310.30100     -2158.44700                
G22  23688485.31600 124483830.53500      2942.33000                
G23  20736337.79400 108970190.59400     -1169.43300                
G27  21291415.66300 111887144.48700      1923.88100                
G28  24146394.98100 126890162.06400     -2991.57800                
E01        12.74100        66.95400        23.86600                
E02        18.63400        97.92200         7.51500                
E03        30.09600       158.15400       -13.15800                
E04        35.76900       187.96800       -21.47200                
E05        24.17700       127.04800       -24.98200                
E06         5.09600        26.78100       -13.33200                
> 2025 04 22 14 00 19.0000000  0 16
G03  24460785.43800 128542295.06600      1671.71200                
G09  24283775.51000 127612101.61600      -420.34400                
G14  20693151.27500 108743243.90900      -222.44200                
G15  24892995.47500 130813574.14100     -4068.13000                
G18  21944389.33500 115318544.29100      2551.43800                
G19  21614596.55400 113585471.53200     -2164.20000                
G22  23687925.01700 124480886.14300      2946.77900                
G23  20736560.48500 108971360.84400     -1171.19300                
G27  21291050.01200 111885222.97700      1919.11500                
G28  24146964.46000 126893154.69600     -2994.02100                
E01         8.63000        45.35300        19.07200                
E02        17.35600        91.20700         6.35800                
E03        32.18400       169.12600        -8.44100                
E04        39.28900       206.46500       -15.25700                
E05        28.40500       149.27000       -19.19200                
E06         8.50300        44.68200       -19.19000                
> 2025 04 22 14 00 20.0000000  0 16
G03  24460468.05300 128540627.19400      1663.78000                
G09  24283854.83200 127612518.45700      -413.32200                
G14  20693193.30000 108743464.74800      -219.10800                
G15  24893770.05100 130817644.56700     -4072.59900                
G18  21943903.24900 115315989.89000      2557.41400                
G19  21615009.00400 113587638.96900     -2170.77200                
G22  23687363.69500 124477936.37300      2953.00200                
G23  20736783.57700 108972533.20300     -1173.62600                
G27  21290685.26700 111883306.22700      1914.42400                
G28  24147534.58100 126896150.70200     -2998.28100                
E01         5.62400        29.55600        11.90100                
E02        16.03800        84.27800         7.94000                
E03        33.19900       174.46000        -2.00300                
E04        41.49200       218.04300        -7.73000                
E05        31.40000       165.01100       -12.13700                
E06        11.87600        62.40800       -15.77100                
> 2025 04 22 14 00 21.0000000  0 16
G03  24460152.29600 128538967.88400      1654.70700                
G09  24283932.83100 127612928.34300      -406.54900                
G14  20693234.62900 108743681.93500      -215.20500                
G15  24894545.38400 130821718.96900     -4076.02400                
G18  21943416.01000 115313429.43400      2563.45500                
G19  21615422.73800 113589813.15900     -2177.60700                
G22  23686801.06400 124474979.72600      2960.42800                
G23  20737007.18300 108973708.25700     -1176.54900                
G27  21290321.37700 111881393.97600      1910.17700                
G28  24148105.65900 126899151.73800     -3004.00900                
E01         4.47700        23.52700        -0.83000                
E02        14.19500        74.59700        11.69000                
E03        32.88400       172.80900         5.40100                
E04        42.18800       221.70200         0.46500                
E05        32.99000       173.36500        -4.54800                
E06        14.43900        75.87700       -11.19800                
> 2025 04 22 14 00 22.0000000  0 16
G03  24459838.31500 128537317.90100      1645.26100                
G09  24284009.61800 127613331.86000      -400.68900                
G14  20693275.19400 108743895.10600      -211.14600                
G15  24895321.24500 130825796.14300     -4078.10000                
G18  21942927.66000 115310863.13800      2569.00200                
G19  21615837.75200 113591994.07200     -2184.12500                
G22  23686236.95800 124472015.33200      2968.37500                
G23  20737231.37300 108974886.38600     -1179.73300                
G27  21289958.22800 111879485.61200      1906.70000                
G28  24148677.93000 126902159.03900     -3010.72300                
E01         5.88900        30.94900       -12.92200                
E02        11.53500        60.61400        16.26900                
E03        31.13300       163.60400        12.96900                
E04        41.31800       217.12600         8.61900                
E05        33.14700       174.19100         2.78700                
E06        16.20300        85.14800        -7.63500                
> 2025 04 22 14 00 23.0000000  0 16
G03  24459526.10300 128535677.21700      1636.23900                
G09  24284085.42300 127613730.22000      -396.32200                
G14  20693315.00600 108744104.31700      -207.35700                
G15  24896097.35600 130829874.63700     -4078.64400                
G18  21942438.34300 115308291.75900      2573.54000                
G19  21616253.93300 113594181.11300     -2189.77500                
G22  23685671.34900 124469043.03300      2976.11700                
G23  20737456.17500 108976067.72600     -1182.92900                
G27  21289595.64500 111877580.22800      1904.25200                
G28  24149251.52700 126905173.31300     -3017.85500                
E01         9.04400        47.52700       -19.69200                
E02         8.09200        42.52600        19.30200                
E03        27.98800       147.07800        19.91700                
E04        38.95500       204.71200        16.02900                
E05        31.99600       168.14200         9.06800                
E06        17.49100        91.91600        -6.35100                
> 2025 04 22 14 00 24.0000000  0 16
G03  24459215.50700 128534045.02200      1628.40400                
G09  24284160.57600 127614125.15400      -393.89700                
G14  20693354.15400 108744310.04400      -204.24000                
G15  24896873.42100 130833952.88300     -4077.60900                
G18  21941948.29300 115305716.52800      2576.64600                
G19  21616671.06600 113596373.16700     -2194.08100                
G22  23685104.34200 124466063.39300      2982.94500                
G23  20737681.56500 108977252.16200     -1185.88300                
G27  21289233.41700 111875676.70300      1903.00100                
G28  24149826.47300 126908194.67400     -3024.79700                
E01        13.25500        69.65500       -24.30700                
E02         4.83700        25.41900        10.91000                
E03        23.63800       124.21800        25.52300                
E04        35.30500       185.52800        22.06300                
E05        29.81000       156.65500        13.55100                
E06        18.79700        98.77700        -7.79800                
> 2025 04 22 14 00 25.0000000  0 16
G03  24458906.23600 128532419.79000      1622.41000                
G09  24284235.47600 127614518.75600      -393.68800                
G14  20693392.80200 108744513.13800      -202.14000                
G15  24897649.14400 130838029.33700     -4075.08800                
G18  21941457.81300 115303139.03800      2578.02200                
G19  21617088.86300 113598568.70200     -2196.69100                
G22  23684536.17300 124463077.64700      2988.23300                
G23  20737907.47700 108978439.33300     -1188.36500                
G27  21288871.30600 111873773.80000      1903.00800                
G28  24150402.67400 126911222.63400     -3030.96000                
E01        18.19400        95.61100       -27.31000                
E02         5.79400        30.44700       -19.80600                
E03        18.40100        96.69900        29.12400                
E04        30.67800       161.21200        26.22300                
E05        26.99100       141.83900        15.64700                
E06        20.57900       108.14100       -11.09500                
> 2025 04 22 14 00 26.0000000  0 16
G03  24458597.88900 128530799.41900      1618.74800                
G09  24284310.55500 127614913.29700      -395.77200                
G14  20693431.16700 108744714.74700      -201.30600                
G15  24898424.26400 130842102.61700     -4071.30800                
G18  21940967.24800 115300561.10200      2577.52600                
G19  21617506.97700 113600765.90900     -2197.40200                
G22  23683967.18500 124460087.59500      2991.49000                
G23  20738133.80000 108979628.67000     -1190.18600                
G27  21288509.07800 111871870.28000      1904.21900                
G28  24150979.93300 126914256.14800     -3035.82500                
E01        23.52500       123.62300       -28.36000                
E02        10.70400        56.25200       -29.14600                
E03        12.73100        66.89900        29.90100                
E04        25.46300       133.81000        28.20400                
E05        24.02400       126.24600        15.10900                
E06        23.01400       120.94100       -14.32400                
> 2025 04 22 14 00 27.0000000  0 16
G03  24458289.99400 128529181.41700      1617.70000                
G09  24284386.24000 127615311.02400      -400.02200                
G14  20693469.50600 108744916.22000      -201.87900                
G15  24899198.57000 130846171.62600     -4066.60900                
G18  21940476.95500 115297984.59500      2575.18500                
G19  21617925.04200 113602962.85500     -2196.18100                
G22  23683397.79700 124457095.43700      2992.41000                
G23  20738360.39600 108980819.44000     -1191.21600                
G27  21288146.51700 111869965.00800      1906.47600                
G28  24151557.96000 126917293.70300     -3038.98600                
E01        28.84700       151.59000       -27.19500                
E02        16.38200        86.08600       -29.78900                
E03         7.35100        38.63200        25.13300                
E04        20.08700       105.55800        27.93300                
E05        21.38200       112.36500        12.37400                
E06        25.91400       136.17700       -15.75200                
> 2025 04 22 14 00 28.0000000  0 16
G03  24457982.04300 128527563.12600      1619.31500                
G09  24284462.91600 127615713.95700      -406.11500                
G14  20693508.08900 108745118.97900      -203.87100                
G15  24899971.92800 130850235.64800     -4061.41200                
G18  21939987.26900 115295411.27700      2571.18900                
G19  21618342.70100 113605157.66500     -2193.16800                
G22  23682828.46500 124454103.57800      2990.89400                
G23  20738587.10700 108982010.81600     -1191.39600                
G27  21287783.44600 111868057.05800      1909.52600                
G28  24152136.40600 126920333.45600     -3040.19400                
E01        33.73300       177.26600       -23.79500                
E02        21.83400       114.74100       -27.08300                
E03         4.44800        23.37500         0.32100                
E04        14.96400        78.63800        25.59000                
E05        19.36500       101.76500         8.86100                
E06        28.84400       151.57600       -14.60200                
> 2025 04 22 14 00 29.0000000  0 16
G03  24457673.54500 128525941.95800      1623.40400                
G09  24284540.88900 127616123.70800      -413.56700                
G14  20693547.17900 108745324.39800      -207.16900                
G15  24900744.28600 130854294.41800     -4056.18300                
G18  21939498.47500 115292842.64900      2565.87500                
G19  21618759.63800 113607348.68500     -2188.66200                
G22  23682259.64600 124451114.41300      2987.05900                
G23  20738813.77300 108983201.95100     -1190.74100                
G27  21287419.74500 111866145.79400      1913.04500                
G28  24152714.88800 126923373.39900     -3039.36900                
E01        37.77500       198.50900       -18.38800                
E02        26.54700       139.50400       -22.12400                
E03         6.77800        35.61900       -18.80400                
E04        10.45600        54.94800        21.53200                
E05        17.93100        94.22700         6.57300                
E06        31.31000       164.53400       -10.92300                
> 2025 04 22 14 00 30.0000000  0 16
G03  24457364.06400 128524315.62400      1629.55800                
G09  24284620.36200 127616541.34100      -421.76900                
G14  20693587.00400 108745533.67600      -211.54300                
G15  24901515.68400 130858348.13900     -4051.38900                
G18  21939010.78200 115290279.80700      2559.69900                
G19  21619175.60900 113609534.62900     -2183.09700                
G22  23681691.75200 124448130.11400      2981.23300                
G23  20739040.24100 108984392.04900     -1189.34500                
G27  21287055.35800 111864230.92800      1916.66900                
G28  24153293.02700 126926411.53700     -3036.61500                
E01        40.63100       213.51500       -11.40600                
E02        30.15400       158.46000       -15.58000                
E03        10.36800        54.48300       -17.74000                
E04         6.87400        36.12300        15.75300                
E05        16.69700        87.74300         6.86500                
E06        32.87200       172.74300        -5.20900                
> 2025 04 22 14 00 31.0000000  0 16
G03  24457053.26200 128522682.34700      1637.18200                
G09  24284701.41400 127616967.27200      -430.04800                
G14  20693627.73800 108745747.73500      -216.66800                
G15  24902286.24500 130862397.46500     -4047.46200                
G18  21938524.30500 115287723.35200      2553.19500                
G19  21619590.46200 113611714.69600     -2177.00200                
G22  23681125.11900 124445152.43400      2973.91800                
G23  20739266.38400 108985580.44300     -1187.36300                
G27  21286690.30100 111862312.54200      1920.02200                
G28  24153870.47800 126929446.06600     -3032.21100                
E01        42.05400       220.99300        -3.44100                
E02        32.42000       170.36600        -8.14700                
E03        13.33800        70.09200       -13.33000                
E04         4.71100        24.75600         5.92800                
E05        15.15300        79.63100         9.72200                
E06        33.20800       174.50800         1.83700                
> 2025 04 22 14 00 32.0000000  0 16
G03  24456740.92500 128521041.00700      1645.55200                
G09  24284783.99400 127617401.23500      -437.72300                
G14  20693669.48700 108745967.13100      -222.15000                
G15  24903056.17000 130866443.44900     -4044.75300                
G18  21938039.05200 115285173.33200      2546.92300                
G19  21620004.15000 113613888.64100     -2170.95100                
G22  23680559.96900 124442182.55000      2965.75300                
G23  20739492.11200 108986766.64700     -1185.00600                
G27  21286324.66100 111860391.08700      1922.75300                
G28  24154446.96700 126932475.53600     -3026.57700                
E01        41.92100       220.29800         4.82100                
E02        33.24700       174.71300        -0.59200                
E03        15.45500        81.21600        -9.09800                
E04         4.93500        25.93400        -8.05200                
E05        12.89900        67.78300        14.11300                
E06        32.13800       168.88800         9.42700                
> 2025 04 22 14 00 33.0000000  0 16
G03  24456426.98800 128519391.25500      1653.87500                
G09  24284867.92700 127617842.30500      -444.16500                
G14  20693712.28100 108746192.01100      -227.56400                
G15  24903825.71600 130870487.43900     -4043.50600                
G18  21937554.92800 115282629.24000      2541.42500                
G19  21620416.73700 113616056.79900     -2165.51800                
G22  23679996.39700 124439220.96300      2957.44800                
G23  20739717.37400 108987950.40900     -1182.51700                
G27  21285958.58300 111858467.33700      1924.56900                
G28  24155022.30900 126935498.97800     -3020.25000                
E01        40.24500       211.49000        12.66700                
E02        32.68800       171.77700         6.28400                
E03        16.91300        88.87900        -6.62000                
E04         7.39600        38.86800       -16.89500                
E05         9.79000        51.44800        18.32400                
E06        29.63600       155.74000        16.76200                
> 2025 04 22 14 00 34.0000000  0 16
G03  24456111.53400 128517733.53300      1661.36400                
G09  24284952.92600 127618288.98000      -448.85800                
G14  20693756.06400 108746422.09700      -232.49300                
G15  24904595.17300 130874530.96700     -4043.83400                
G18  21937071.73800 115280090.05800      2537.17200                
G19  21620828.39000 113618220.05000     -2161.21700                
G22  23679434.36200 124436267.44700      2949.73100                
G23  20739942.17000 108989131.72200     -1180.15300                
G27  21285592.26500 111856542.32300      1925.25500                
G28  24155596.42700 126938515.99100     -3013.82200                
E01        37.17000       195.32900        19.42100                
E02        30.94800       162.63300        11.70100                
E03        18.14500        95.35300        -6.79700                
E04        11.15800        58.63400       -22.32100                
E05         6.18900        32.52400        17.88700                
E06        25.82300       135.70200        23.08600                
> 2025 04 22 14 00 35.0000000  0 16
G03  24455794.79100 128516069.04100      1667.30500                
G09  24285038.62200 127618739.31600      -451.44100                
G14  20693800.71000 108746656.70900      -236.56000                
G15  24905364.84200 130878575.60400     -4045.70900                
G18  21936589.20900 115277554.35100      2534.52500                
G19  21621239.36600 113620379.74500     -2158.46600                
G22  23678873.68500 124433321.07000      2943.27300                
G23  20740166.54900 108990310.83600     -1178.15800                
G27  21285225.93400 111854617.23800      1924.70000                
G28  24156169.36200 126941526.78000     -3007.90000                
E01        32.95900       173.20200        24.51700                
E02        28.37100       149.09000        14.98100                
E03        19.65800       103.30500        -9.42000                
E04        15.79100        82.98400       -26.11400                
E05         4.55600        23.94300        -6.44100                
E06        20.95800       110.13300        27.71500                
> 2025 04 22 14 00 36.0000000  0 16
G03  24455477.11300 128514399.62900      1671.12400                
G09  24285124.59400 127619191.09800      -451.73900                
G14  20693846.02200 108746894.82900      -239.46700                
G15  24906135.00300 130882622.82500     -4048.96500                
G18  21936107.01200 115275020.39100      2533.69900                
G19  21621649.99000 113622537.58600     -2157.54100                
G22  23678314.07100 124430380.28200      2938.63400                
G23  20740390.59900 108991488.23000     -1176.74300                
G27  21284859.82700 111852693.33400      1922.90100                
G28  24156741.26200 126944532.13500     -3003.04100                
E01        27.97100       146.98600        27.55000                
E02        25.41100       133.53600        15.68300                
E03        21.78800       114.49700       -12.93900                
E04        20.98400       110.27100       -28.13100                
E05         8.18100        42.99400       -26.67300                
E06        15.42500        81.06100        29.96300                
> 2025 04 22 14 00 37.0000000  0 16
G03  24455158.94200 128512727.62900      1672.43500                
G09  24285210.40500 127619642.04100      -449.78500                
G14  20693891.76200 108747135.19000      -241.01900                
G15  24906905.89200 130886673.87700     -4053.31300                
G18  21935624.79400 115272486.31700      2534.75000                
G19  21622060.62100 113624695.46900     -2158.55600                
G22  23677755.13500 124427443.04900      2936.21300                
G23  20740614.44900 108992664.56800     -1176.06900                
G27  21284494.17300 111850771.81000      1919.96900                
G28  24157312.37600 126947533.36200     -2999.71100                
E01        22.61700       118.85500        28.33500                
E02        22.56400       118.57300        13.87000                
E03        24.51200       128.81300       -15.37600                
E04        26.36300       138.53800       -28.03000                
E05        13.69000        71.94000       -30.02700                
E06         9.78200        51.40300        28.50500                
> 2025 04 22 14 00 38.0000000  0 16
G03  24454840.77400 128511055.64800      1671.07800                
G09  24285295.64700 127620089.99200      -445.81000                
G14  20693937.66000 108747376.38900      -241.14300                
G15  24907677.68300 130890729.66500     -4058.36500                
G18  21935142.20500 115269950.29400      2537.56300                
G19  21622471.62700 113626855.32000     -2161.45200                
G22  23677196.43000 124424507.03700      2936.20800                
G23  20740838.24900 108993840.64500     -1176.23000                
G27  21284129.16900 111848853.70000      1916.11300                
G28  24157883.03000 126950532.16600     -2998.23700                
E01        17.32600        91.04900        26.93200                
E02        20.23400       106.33000        10.48800                
E03        27.49000       144.45900       -15.47800                
E04        31.50800       165.57600       -25.67100                
E05        19.32600       101.56100       -28.68700                
E06         5.21900        27.42500        15.96000                
> 2025 04 22 14 00 39.0000000  0 16
G03  24454523.11500 128509386.33700      1667.12800                
G09  24285379.97200 127620533.12200      -440.22600                
G14  20693983.45000 108747617.01500      -239.89100                
G15  24908450.46700 130894790.67300     -4063.67300                
G18  21934658.93300 115267410.68300      2541.86800                
G19  21622883.34700 113629018.91900     -2166.00100                
G22  23676637.49600 124421569.81900      2938.60300                
G23  20741062.16100 108995017.31200     -1177.24500                
G27  21283764.96400 111846939.78900      1911.62700                
G28  24158453.59300 126953530.49800     -2998.78000                
E01        12.48800        65.62300        23.63800                
E02        18.55500        97.50500         7.38300                
E03        30.23500       158.88600       -12.95100                
E04        35.99600       189.16300       -21.16800                
E05        24.44100       128.44100       -24.70300                
E06         5.24400        27.55700       -14.34200                
> 2025 04 22 14 00 40.0000000  0 16
G03  24454206.43100 128507722.15200      1660.89500                
G09  24285463.12500 127620970.09300      -433.59100                
G14  20694028.88300 108747855.77000      -237.44000                
G15  24909224.24800 130898856.91800     -4068.76300                
G18  21934174.73100 115264866.18600      2547.25900                
G19  21623296.06000 113631187.74400     -2171.82900                
G22  23676077.89500 124418629.09500      2943.16800                
G23  20741286.34400 108996195.40100     -1179.05800                
G27  21283401.64500 111845030.53600      1906.85900                
G28  24159024.45200 126956530.38200     -3001.32200                
E01         8.42900        44.29300        18.75300                
E02        17.28800        90.85000         6.37400                
E03        32.27200       169.59000        -8.11900                
E04        39.45000       207.30900       -14.86400                
E05        28.60800       150.33500       -18.82400                
E06         8.70700        45.75500       -19.10100                
> 2025 04 22 14 00 41.0000000  0 16
G03  24453891.11200 128506065.13600      1652.88900                
G09  24285544.96600 127621400.17000      -426.55400                
G14  20694073.75800 108748091.58800      -234.07300                
G15  24909998.94000 130902927.95300     -4073.18200                
G18  21933689.43900 115262315.96100      2553.23600                
G19  21623709.96600 113633362.83400     -2178.44500                
G22  23675517.25100 124415682.89000      2949.47600                
G23  20741510.93800 108997375.65000     -1181.54000                
G27  21283039.23000 111843126.03500      1902.18500                
G28  24159595.97100 126959533.73400     -3005.66700                
E01         5.50000        28.90400        11.36200                
E02        15.95200        83.82900         8.10300                
E03        33.21800       174.56200        -1.60600                
E04        41.57200       218.46300        -7.28200                
E05        31.52800       165.67900       -11.71900                
E06        12.04300        63.28500       -15.51700                
> 2025 04 22 14 00 42.0000000  0 16
G03  24453577.43200 128504416.73700      1643.78300                
G09  24285625.48400 127621823.29400      -419.80000                
G14  20694117.93400 108748323.73100      -230.15500                
G15  24910774.37800 130907002.90500     -4076.53600                
G18  21933202.99800 115259759.69500      2559.24500                
G19  21624125.16200 113635544.70400     -2185.29000                
G22  23674955.28500 124412729.74200      2956.94900                
G23  20741736.05300 108998558.63900     -1184.50300                
G27  21282677.66700 111841226.00900      1897.96900                
G28  24160168.46100 126962542.18800     -3011.45700                
E01         4.49000        23.59700        -1.65500                
E02        14.06900        73.93500        11.94000                
E03        32.82500       172.49400         5.82800                
E04        42.18100       221.66200         0.93000                
E05        33.03700       173.60800        -4.12200                
E06        14.55700        76.49800       -10.95800                
> 2025 04 22 14 00 43.0000000  0 16
G03  24453265.52900 128502777.67800      1634.34400                
G09  24285704.79700 127622240.08600      -413.99200                
G14  20694161.34300 108748551.85200      -226.10000                
G15  24911550.32800 130911080.55000     -4078.52900                
G18  21932715.45500 115257197.63600      2564.73000                
G19  21624541.63600 113637733.29100     -2191.78300                
G22  23674391.84100 124409768.82100      2964.90100                
G23  20741961.76000 108999744.73700     -1187.71600                
G27  21282316.83700 111839329.83100      1894.53600                
G28  24160742.15200 126965556.95700     -3018.20500                
E01         6.03000        31.68700       -13.40500                
E02        11.36000        59.69600        16.51300                
E03        30.99200       162.86600        13.38200                
E04        41.22300       216.63100         9.06100                
E05        33.11600       174.02300         3.17500                
E06        16.28400        85.57200        -7.49400                
> 2025 04 22 14 00 44.0000000  0 16
G03  24452955.39100 128501147.89100      1625.37100                
G09  24285783.14100 127622651.78700      -409.70500                
G14  20694204.00300 108748776.02800      -222.33500                
G15  24912326.51200 130915159.42600     -4078.98100                
G18  21932226.95800 115254630.57100      2569.18200                
G19  21624959.26900 113639927.96300     -2197.37400                
G22  23673826.89500 124406800.01200      2972.60400                
G23  20742188.08200 109000934.06800     -1190.92500                
G27  21281956.56400 111837436.58400      1892.14300                
G28  24161317.17400 126968578.71600     -3025.33900                
E01         9.25600        48.63900       -19.99300                
E02         7.88600        41.44400        19.32000                
E03        27.77400       145.95200        20.27300                
E04        38.78200       203.80300        16.40900                
E05        31.89800       167.62600         9.37400                
E06        17.55900        92.27200        -6.36200                
> 2025 04 22 14 00 45.0000000  0 16
G03  24452646.85500 128499526.52500      1617.61900                
G09  24285860.85000 127623060.15200      -407.38100                
G14  20694246.00500 108748996.75300      -219.26000                
G15  24913102.63200 130919237.96500     -4077.85600                
G18  21931737.74700 115252059.74800      2572.18400                
G19  21625377.84100 113642127.57500     -2201.59600                
G22  23673260.56400 124403823.92000      2979.35400                
G23  20742414.99400 109002126.49900     -1193.87700                
G27  21281596.63400 111835545.14000      1890.94900                
G28  24161893.54200 126971607.54900     -3032.25100                
E01        13.51500        71.02400       -24.52100                
E02         4.72800        24.84600         9.48900                
E03        23.36400       122.78000        25.78400                
E04        35.06800       184.28300        22.35000                
E05        29.66500       155.89000        13.73600                
E06        18.88100        99.21800        -7.94800                
> 2025 04 22 14 00 46.0000000  0 16
G03  24452339.62600 128497912.02400      1611.73800                
G09  24285938.32600 127623467.29300      -407.28400                
G14  20694287.51600 108749214.89100      -217.21300                
G15  24913878.39500 130923314.62400     -4075.25500                
G18  21931248.12700 115249486.77500      2573.44800                
G19  21625797.05800 113644330.57400     -2204.10000                
G22  23672693.08900 124400841.81800      2984.53100                
G23  20742642.42500 109003321.65700     -1196.34100                
G27  21281236.81200 111833654.26100      1891.01200                
G28  24162471.15700 126974642.93700     -3038.35600                
E01        18.48600        97.14500       -27.42400                
E02         6.01100        31.58700       -20.87000                
E03        18.09000        95.06300        29.25200                
E04        30.39700       159.73800        26.39400                
E05        26.82400       140.96100        15.68600                
E06        20.69800       108.76900       -11.29700                
> 2025 04 22 14 00 47.0000000  0 16
G03  24452033.29800 128496302.26100      1608.20600                
G09  24286016.00300 127623875.48800      -409.48300                
G14  20694328.75500 108749431.60500      -216.44300                
G15  24914653.53900 130927388.03700     -4071.41000                
G18  21930758.44300 115246913.46900      2572.84300                
G19  21626216.57100 113646535.13100     -2204.69500                
G22  23672124.81800 124397855.53300      2987.65600                
G23  20742870.26300 109004518.95300     -1198.12900                
G27  21280876.86200 111831762.71000      1892.27300                
G28  24163049.81500 126977683.80600     -3043.13700                
E01        23.82700       125.21300       -28.35500                
E02        11.01600        57.89100       -29.31400                
E03        12.41200        65.22500        29.83000                
E04        25.16200       132.22800        28.24800                
E05        23.86300       125.40200        15.00600                
E06        23.16800       121.74800       -14.46400                
> 2025 04 22 14 00 48.0000000  0 16
G03  24451727.39600 128494694.73300      1607.29500                
G09  24286094.30700 127624286.97900      -413.83700                
G14  20694369.98100 108749648.24700      -217.08100                
G15  24915427.86100 130931457.12400     -4066.66800                
G18  21930269.05000 115244341.69400      2570.40400                
G19  21626636.01200 113648739.31000     -2203.35700                
G22  23671556.17200 124394867.28100      2988.43100                
G23  20743098.36700 109005717.64400     -1199.11400                
G27  21280516.57000 111829869.36400      1894.56900                
G28  24163629.22400 126980728.62400     -3046.19800                
E01        29.13600       153.11100       -27.06200                
E02        16.69900        87.75300       -29.71000                
E03         7.08700        37.24000        24.50900                
E04        19.79000       103.99500        27.85300                
E05        21.25100       111.67700        12.18000                
E06        26.08200       137.06000       -15.75800                
> 2025 04 22 14 00 49.0000000  0 16
G03  24451421.41200 128493086.77900      1609.04100                
G09  24286173.62100 127624703.77300      -420.01800                
G14  20694411.46300 108749866.24100      -219.13600                
G15  24916201.22800 130935521.19400     -4061.45400                
G18  21929780.28200 115241773.19900      2566.33000                
G19  21627055.02600 113650941.24200     -2200.23700                
G22  23670987.61100 124391879.47300      2986.77200                
G23  20743326.57600 109006916.89400     -1199.24200                
G27  21280155.76200 111827973.30700      1897.64400                
G28  24164209.03200 126983775.53500     -3047.29700                
E01        33.98500       178.59200       -23.54200                
E02        22.12200       116.25200       -26.85800                
E03         4.45500        23.41300        -1.68900                
E04        14.69200        77.20900        25.40400                
E05        19.27200       101.27400         8.68200                
E06        28.99900       152.39100       -14.46000                
> 2025 04 22 14 00 50.0000000  0 16
G03  24451114.85800 128491475.82600      1613.24400                
G09  24286254.24600 127625127.46100      -427.53100                
G14  20694453.46400 108750086.95400      -222.48900                
G15  24916973.59400 130939580.00800     -4056.23300                
G18  21929292.41800 115239209.45700      2560.96600                
G19  21627473.30000 113653139.28600     -2195.64400                
G22  23670419.58900 124388894.49600      2982.81000                
G23  20743554.72900 109008115.84700     -1198.53300                
G27  21279794.32100 111826073.92000      1901.17000                
G28  24164788.85600 126986822.52700     -3046.36400                
E01        37.96900       199.53000       -18.03300                
E02        26.78100       140.73400       -21.79300                
E03         6.98000        36.67800       -18.99400                
E04        10.22800        53.74900        21.25900                
E05        17.86100        93.86000         6.51500                
E06        31.42500       165.13900       -10.65100                
> 2025 04 22 14 00 51.0000000  0 16
G03  24450807.30200 128489859.60800      1619.48300                
G09  24286336.38000 127625559.07600      -435.76400                
G14  20694496.20700 108750311.57400      -226.90400                
G15  24917745.00400 130943633.79500     -4051.47500                
G18  21928805.66200 115236651.53700      2554.77100                
G19  21627890.59300 113655332.17900     -2190.02000                
G22  23669852.51500 124385914.50100      2976.88100                
G23  20743782.67500 109009313.70900     -1197.08300                
G27  21279432.19400 111824170.93300      1904.78300                
G28  24165368.31600 126989867.61100     -3043.51400                
E01        40.75000       214.14200       -10.98000                
E02        30.31800       159.32200       -15.18000                
E03        10.55600        55.47200       -17.52800                
E04         6.70800        35.25100        15.35000                
E05        16.62300        87.35500         6.96300                
E06        32.92500       173.02400        -4.84300                
> 2025 04 22 14 00 52.0000000  0 16
G03  24450498.41200 128488236.37700      1627.15600                
G09  24286420.09500 127625999.00300      -444.03900                
G14  20694539.86700 108750541.00800      -232.05300                
G15  24918515.58700 130947683.23500     -4047.60500                
G18  21928320.12200 115234100.00600      2548.28100                
G19  21628306.76100 113657519.15200     -2183.89700                
G22  23669286.71600 124382941.20900      2969.50000                
G23  20744010.28700 109010509.81700     -1195.05400                
G27  21279069.40200 111822264.44500      1908.10900                
G28  24165947.07300 126992908.99800     -3039.03200                
E01        42.08800       221.17300        -2.98000                
E02        32.50400       170.81100        -7.72000                
E03        13.47900        70.83200       -13.07000                
E04         4.65200        24.44500         5.17700                
E05        15.04900        79.08000         9.94000                
E06        33.18600       174.39300         2.25500                
> 2025 04 22 14 00 53.0000000  0 16
G03  24450187.98200 128486605.05700      1635.53400                
G09  24286505.33400 127626446.94000      -451.67500                
G14  20694584.54500 108750775.79300      -237.54000                
