     3.05           OBSERVATION DATA    M                   RINEX VERSION / TYPE
GSPF V1.7.0                             20250903 142609 UTC PGM / RUN BY / DATE
V001                                                        MARKER NAME
NON_GEODETIC                                                MARKER TYPE
                                                            OBSERVER / AGENCY
                                                            REC # / TYPE / VERS
                                                            ANT # / TYPE
  4181981.0392   860772.9536  4723075.6527                  APPROX POSITION XYZ
        0.0000        0.0000        0.0000                  ANTENNA: DELTA H/E/N
G    4 C1C L1C D1C S1C                                      SYS / # / OBS TYPES
E    4 C1B L1B D1B S1B                                      SYS / # / OBS TYPES
  2025     4    22    14     0    1.0000000     GPS         TIME OF FIRST OBS
G L1C  0.00000   0                                          SYS / PHASE SHIFT
E L1B  0.00000   0                                          SYS / PHASE SHIFT
 C1C    0.000 C1P    0.000 C2C    0.000 C2P    0.000        GLONASS COD/PHS/BIS
                                                            END OF HEADER
> 2025 04 22 14 00  1.0000000  0 16
G03  24466471.39400 128572174.96400      1660.43700                
G09  24282356.05900 127604642.35200      -403.79500                
G14  20692438.37000 108739497.56400      -199.00300                
G15  24879096.44500 130740534.24200     -4060.55500                
G18  21953145.51100 115364558.30900      2562.25200                
G19  21607174.35400 113546467.60500     -2167.09500                
G22  23698080.03900 124534251.14300      2970.02400                
G23  20732536.86000 108950216.55300     -1171.99500                
G27  21297651.86400 111919915.94500      1930.26900                
G28  24136655.92400 126838982.97300     -3008.22600                
E01        22.14200       116.35700         0.00000                
E02        15.33800        80.60200         0.00000                
E03        15.33800        80.60200         0.00000                
E04        22.14200       116.35700         0.00000                
E05        15.33800        80.59900         0.00000                
E06        15.33800        80.59900         0.00000                
> 2025 04 22 14 00  2.0000000  0 16
G03  24466155.47000 128570514.77200      1659.94200                
G09  24282432.96100 127605046.47200      -404.44400                
G14  20692476.30800 108739696.92900      -199.72600                
G15  24879869.14200 130744594.79600     -4060.57500                
G18  21952657.95100 115361996.16000      2562.03700                
G19  21607586.77100 113548634.87000     -2167.44200                
G22  23697514.87900 124531281.20700      2969.83700                
G23  20732759.91900 108951388.73400     -1172.36800                
G27  21297284.60100 111917985.96000      1929.69600                
G28  24137228.40200 126841991.36400     -3008.56800                
E01        22.14200       116.35700         0.00000                
E02        15.33800        80.60200         0.00000                
E03        15.33800        80.60200         0.00000                
E04        22.14200       116.35700         0.00000                
E05        15.33800        80.59900         0.00000                
E06        15.33800        80.59900         0.00000                
> 2025 04 22 14 00  3.0000000  0 16
G03  24465839.64000 128568855.07700      1659.44600                
G09  24282509.98600 127605451.24100      -405.09400                
G14  20692514.38300 108739897.01600      -200.44800                
G15  24880641.84400 130748655.37100     -4060.59400                
G18  21952170.43100 115359434.22700      2561.82200                
G19  21607999.25400 113550802.48400     -2167.79000                
G22  23696949.75500 124528311.45900      2969.65000                
G23  20732983.04800 108952561.28800     -1172.74200                
G27  21296917.44600 111916056.54800      1929.12400                
G28  24137800.94500 126845000.09800     -3008.91100                
E01        22.14200       116.35700         0.00000                
E02        15.33800        80.60200         0.00000                
E03        15.33800        80.60200         0.00000                
E04        22.14200       116.35700         0.00000                
E05        15.33800        80.59900         0.00000                
E06        15.33800        80.59900         0.00000                
> 2025 04 22 14 00  4.0000000  0 16
G03  24465523.90500 128567195.87700      1658.95100                
G09  24282587.13400 127605856.66000      -405.74300                
G14  20692552.59600 108740097.82500      -201.17000                
G15  24881414.54900 130752715.96400     -4060.61400                
G18  21951682.95200 115356872.50800      2561.60700                
G19  21608411.80300 113552970.44500     -2168.13800                
G22  23696384.66600 124525341.89700      2969.46200                
G23  20733206.24900 108953734.21600     -1173.11600                
G27  21296550.40000 111914127.70800      1928.55100                
G28  24138373.55300 126848009.17400     -3009.25300                
E01        22.14200       116.35700         0.00000                
E02        15.33800        80.60200         0.00000                
E03        15.33800        80.60200         0.00000                
E04        22.14200       116.35700         0.00000                
E05        15.33800        80.59900         0.00000                
E06        15.33800        80.59900         0.00000                
> 2025 04 22 14 00  5.0000000  0 16
G03  24465208.26400 128565537.17200      1658.45500                
G09  24282664.40700 127606262.72800      -406.39300                
G14  20692590.94600 108740299.35700      -201.89300                
G15  24882187.25800 130756776.57600     -4060.63300                
G18  21951195.51400 115354311.00400      2561.39200                
G19  21608824.41900 113555138.75400     -2168.48600                
G22  23695819.61300 124522372.52300      2969.27500                
G23  20733429.52100 108954907.51800     -1173.48900                
G27  21296183.46300 111912199.44100      1927.97900                
G28  24138946.22600 126851018.59200     -3009.59500                
E01        22.14200       116.35700         0.00000                
E02        15.33800        80.60200         0.00000                
E03        15.33800        80.60200         0.00000                
E04        22.14200       116.35700         0.00000                
E05        15.33800        80.59900         0.00000                
E06        15.33800        80.59900         0.00000                
> 2025 04 22 14 00  6.0000000  0 16
G03  24464892.71700 128563878.96300      1657.95900                
G09  24282741.80200 127606669.44500      -407.04200                
G14  20692629.43300 108740501.61000      -202.61500                
G15  24882959.97100 130760837.20800     -4060.65200                
G18  21950708.11700 115351749.71500      2561.17700                
G19  21609237.10000 113557307.41000     -2168.83300                
G22  23695254.59600 124519403.33700      2969.08700                
G23  20733652.86400 108956081.19300     -1173.86300                
G27  21295816.63400 111910271.74600      1927.40600                
G28  24139518.96400 126854028.35300     -3009.93700                
E01        22.14200       116.35700         0.00000                
E02        15.33800        80.60200         0.00000                
E03        15.33800        80.60200         0.00000                
E04        22.14200       116.35700         0.00000                
E05        15.33800        80.59900         0.00000                
E06        15.33800        80.59900         0.00000                
> 2025 04 22 14 00  7.0000000  0 16
G03  24464577.26500 128562221.24900      1657.46400                
G09  24282819.32200 127607076.81200      -407.69200                
G14  20692668.05800 108740704.58700      -203.33700                
G15  24883732.68700 130764897.85900     -4060.67100                
G18  21950220.76100 115349188.64100      2560.96200                
G19  21609649.84800 113559476.41400     -2169.18100                
G22  23694689.61400 124516434.33800      2968.89900                
G23  20733876.27800 108957255.24200     -1174.23600                
G27  21295449.91500 111908344.62400      1926.83300                
G28  24140091.76800 126857038.45500     -3010.27900                
E01        22.14200       116.35700         0.00000                
E02        15.33800        80.60200         0.00000                
E03        15.33800        80.60200         0.00000                
E04        22.14200       116.35700         0.00000                
E05        15.33800        80.59900         0.00000                
E06        15.33800        80.59900         0.00000                
> 2025 04 22 14 00  8.0000000  0 16
G03  24464261.90700 128560564.03200      1656.96800                
G09  24282896.96400 127607484.82800      -408.34100                
G14  20692706.82100 108740908.28500      -204.06000                
G15  24884505.40700 130768958.53100     -4060.69000                
G18  21949733.44600 115346627.78200      2560.74700                
G19  21610062.66200 113561645.76600     -2169.52900                
G22  23694124.66800 124513465.52700      2968.71200                
G23  20734099.76300 108958429.66500     -1174.61000                
G27  21295083.30500 111906418.07500      1926.26100                
G28  24140664.63700 126860048.90000     -3010.62100                
E01        22.14200       116.35700         0.00000                
E02        15.33800        80.60200         0.00000                
E03        15.33800        80.60200         0.00000                
E04        22.14200       116.35700         0.00000                
E05        15.33800        80.59900         0.00000                
E06        15.33800        80.59900         0.00000                
> 2025 04 22 14 00  9.0000000  0 16
G03  24463946.64300 128558907.31100      1656.47200                
G09  24282974.73100 127607893.49300      -408.99000                
G14  20692745.72100 108741112.70600      -204.78200                
G15  24885278.13000 130773019.22000     -4060.70900                
G18  21949246.17100 115344067.13900      2560.53200                
G19  21610475.54200 113563815.46500     -2169.87600                
G22  23693559.75800 124510496.90300      2968.52400                
G23  20734323.31900 108959604.46000     -1174.98300                
G27  21294716.80400 111904492.09900      1925.68800                
G28  24141237.57000 126863059.68600     -3010.96300                
E01        22.14200       116.35700         0.00000                
E02        15.33800        80.60200         0.00000                
E03        15.33800        80.60200         0.00000                
E04        22.14200       116.35700         0.00000                
E05        15.33800        80.59900         0.00000                
E06        15.33800        80.59900         0.00000                
> 2025 04 22 14 00 10.0000000  0 16
G03  24463631.47400 128557251.08500      1655.97600                
G09  24283052.62100 127608302.80800      -409.63900                
G14  20692784.75900 108741317.84900      -205.50400                
G15  24886050.85700 130777079.92800     -4060.72800                
G18  21948758.93800 115341506.71000      2560.31700                
G19  21610888.48800 113565985.51300     -2170.22400                
G22  23692994.88300 124507528.46700      2968.33700                
G23  20734546.94700 108960779.62900     -1175.35700                
G27  21294350.41200 111902566.69500      1925.11500                
G28  24141810.56900 126866070.81400     -3011.30500                
E01        22.14200       116.35700         0.00000                
E02        15.33800        80.60200         0.00000                
E03        15.33800        80.60200         0.00000                
E04        22.14200       116.35700         0.00000                
E05        15.33800        80.59900         0.00000                
E06        15.33800        80.59900         0.00000                
> 2025 04 22 14 00 11.0000000  0 16
G03  24463316.39900 128555595.35700      1655.47900                
G09  24283130.63400 127608712.77200      -410.28900                
G14  20692823.93300 108741523.71500      -206.22700                
G15  24886823.58800 130781140.65500     -4060.74700                
G18  21948271.74600 115338946.49700      2560.10100                
G19  21611301.50100 113568155.90700     -2170.57100                
G22  23692430.04400 124504560.21900      2968.14900                
G23  20734770.64500 108961955.17200     -1175.73000                
G27  21293984.12900 111900641.86400      1924.54200                
G28  24142383.63200 126869082.28400     -3011.64600                
E01        22.14200       116.35700         0.00000                
E02        15.33800        80.60200         0.00000                
E03        15.33800        80.60200         0.00000                
E04        22.14200       116.35700         0.00000                
E05        15.33800        80.59900         0.00000                
E06        15.33800        80.59900         0.00000                
> 2025 04 22 14 00 12.0000000  0 16
G03  24463001.41900 128553940.12300      1654.98300                
G09  24283208.77200 127609123.38500      -410.93800                
G14  20692863.24600 108741730.30300      -206.94900                
G15  24887596.32200 130785201.40100     -4060.76600                
G18  21947784.59400 115336386.49900      2559.88600                
G19  21611714.57900 113570326.64900     -2170.91900                
G22  23691865.24100 124501592.15900      2967.96100                
G23  20734994.41400 108963131.08800     -1176.10300                
G27  21293617.95500 111898717.60600      1923.96900                
G28  24142956.76100 126872094.09600     -3011.98800                
E01        22.14200       116.35700         0.00000                
E02        15.33800        80.60200         0.00000                
E03        15.33800        80.60200         0.00000                
E04        22.14200       116.35700         0.00000                
E05        15.33800        80.59900         0.00000                
E06        15.33800        80.59900         0.00000                
> 2025 04 22 14 00 13.0000000  0 16
G03  24462686.53300 128552285.38700      1654.48700                
G09  24283287.03200 127609534.64700      -411.58700                
G14  20692902.69600 108741937.61300      -207.67100                
G15  24888369.06000 130789262.16600     -4060.78400                
G18  21947297.48400 115333826.71700      2559.67100                
G19  21612127.72400 113572497.73900     -2171.26700                
G22  23691300.47400 124498624.28600      2967.77300                
G23  20735218.25500 108964307.37700     -1176.47600                
G27  21293251.89000 111896793.92200      1923.39600                
G28  24143529.95500 126875106.24800     -3012.32900                
E01        22.14200       116.35700         0.00000                
E02        15.33800        80.60200         0.00000                
E03        15.33800        80.60200         0.00000                
E04        22.14200       116.35700         0.00000                
E05        15.33800        80.59900         0.00000                
E06        15.33800        80.59900         0.00000                
> 2025 04 22 14 00 14.0000000  0 16
G03  24462371.74100 128550631.14700      1653.99000                
G09  24283365.41600 127609946.55900      -412.23600                
G14  20692942.28300 108742145.64600      -208.39400                
G15  24889141.80200 130793322.94900     -4060.80300                
G18  21946810.41400 115331267.15000      2559.45500                
G19  21612540.93500 113574669.17700     -2171.61400                
G22  23690735.74200 124495656.60000      2967.58600                
G23  20735442.16600 108965484.03900     -1176.85000                
G27  21292885.93400 111894870.81100      1922.82300                
G28  24144103.21300 126878118.74300     -3012.67100                
E01        22.14200       116.35700         0.00000                
E02        15.33800        80.60200         0.00000                
E03        15.33800        80.60200         0.00000                
E04        22.14200       116.35700         0.00000                
E05        15.33800        80.59900         0.00000                
E06        15.33800        80.59900         0.00000                
> 2025 04 22 14 00 15.0000000  0 16
G03  24462057.04500 128548977.40300      1653.49400                
G09  24283443.92400 127610359.11900      -412.88500                
G14  20692982.00800 108742354.40100      -209.11600                
G15  24889914.54600 130797383.75100     -4060.82100                
G18  21946323.38600 115328707.79800      2559.24000                
G19  21612954.21100 113576840.96200     -2171.96200                
G22  23690171.04600 124492689.10300      2967.39800                
G23  20735666.14800 108966661.07400     -1177.22300                
G27  21292520.08700 111892948.27200      1922.24900                
G28  24144676.53700 126881131.57800     -3013.01200                
E01        22.14200       116.35700         0.00000                
E02        15.33800        80.60200         0.00000                
E03        15.33800        80.60200         0.00000                
E04        22.14200       116.35700         0.00000                
E05        15.33800        80.59900         0.00000                
E06        15.33800        80.59900         0.00000                
> 2025 04 22 14 00 16.0000000  0 16
G03  24461742.44200 128547324.15700      1652.99700                
G09  24283522.55500 127610772.32800      -413.53400                
G14  20693021.87000 108742563.87800      -209.83900                
G15  24890687.29500 130801444.57100     -4060.84000                
G18  21945836.39900 115326148.66300      2559.02400                
G19  21613367.55400 113579013.09400     -2172.30900                
G22  23689606.38600 124489721.79300      2967.21000                
G23  20735890.20200 108967838.48300     -1177.59600                
G27  21292154.34900 111891026.30700      1921.67600                
G28  24145249.92500 126884144.75500     -3013.35300                
E01        22.14200       116.35700         0.00000                
E02        15.33800        80.60200         0.00000                
E03        15.33800        80.60200         0.00000                
E04        22.14200       116.35700         0.00000                
E05        15.33800        80.59900         0.00000                
E06        15.33800        80.59900         0.00000                
> 2025 04 22 14 00 17.0000000  0 16
G03  24461427.93400 128545671.40600      1652.50000                
G09  24283601.31000 127611186.18700      -414.18300                
G14  20693061.87000 108742774.07800      -210.56100                
G15  24891460.04700 130805505.40900     -4060.85800                
G18  21945349.45200 115323589.74300      2558.80800                
G19  21613780.96400 113581185.57400     -2172.65700                
G22  23689041.76100 124486754.67200      2967.02200                
G23  20736114.32600 108969016.26400     -1177.96900                
G27  21291788.72100 111889104.91600      1921.10300                
G28  24145823.37900 126887158.27200     -3013.69400                
E01        22.14200       116.35700         0.00000                
E02        15.33800        80.60200         0.00000                
E03        15.33800        80.60200         0.00000                
E04        22.14200       116.35700         0.00000                
E05        15.33800        80.59900         0.00000                
E06        15.33800        80.59900         0.00000                
> 2025 04 22 14 00 18.0000000  0 16
G03  24461113.52100 128544019.15300      1652.00300                
G09  24283680.18800 127611600.69400      -414.83200                
G14  20693102.00700 108742985.00000      -211.28300                
G15  24892232.80200 130809566.26500     -4060.87600                
G18  21944862.54700 115321031.03800      2558.59300                
G19  21614194.43900 113583358.40100     -2173.00400                
G22  23688477.17200 124483787.73800      2966.83400                
G23  20736338.52200 108970194.41900     -1178.34200                
G27  21291423.20100 111887184.09800      1920.52900                
G28  24146396.89700 126890172.13100     -3014.03500                
E01        22.14200       116.35700         0.00000                
E02        15.33800        80.60200         0.00000                
E03        15.33800        80.60200         0.00000                
E04        22.14200       116.35700         0.00000                
E05        15.33800        80.59900         0.00000                
E06        15.33800        80.59900         0.00000                
> 2025 04 22 14 00 19.0000000  0 16
G03  24460799.20200 128542367.39600      1651.50600                
G09  24283759.18900 127612015.85100      -415.48100                
G14  20693142.28100 108743196.64500      -212.00600                
G15  24893005.56100 130813627.14100     -4060.89400                
G18  21944375.68300 115318472.54900      2558.37700                
G19  21614607.98000 113585531.57600     -2173.35100                
G22  23687912.61900 124480820.99200      2966.64600                
G23  20736562.78800 108971372.94600     -1178.71500                
G27  21291057.79100 111885263.85300      1919.95600                
G28  24146970.48000 126893186.33100     -3014.37600                
E01        22.14200       116.35700         0.00000                
E02        15.33800        80.60200         0.00000                
E03        15.33800        80.60200         0.00000                
E04        22.14200       116.35700         0.00000                
E05        15.33800        80.59900         0.00000                
E06        15.33800        80.59900         0.00000                
> 2025 04 22 14 00 20.0000000  0 16
G03  24460484.97800 128540716.13700      1651.00900                
G09  24283838.31500 127612431.65600      -416.13000                
G14  20693182.69300 108743409.01100      -212.72800                
G15  24893778.32300 130817688.03300     -4060.91200                
G18  21943888.86000 115315914.27600      2558.16100                
G19  21615021.58800 113587705.09800     -2173.69900                
G22  23687348.10200 124477854.43400      2966.45800                
G23  20736787.12500 108972551.84700     -1179.08800                
G27  21290692.48900 111883344.18100      1919.38200                
G28  24147544.12800 126896200.87100     -3014.71600                
E01        22.14200       116.35700         0.00000                
E02        15.33800        80.60200         0.00000                
E03        15.33800        80.60200         0.00000                
E04        22.14200       116.35700         0.00000                
E05        15.33800        80.59900         0.00000                
E06        15.33800        80.59900         0.00000                
> 2025 04 22 14 00 21.0000000  0 16
G03  24460170.84800 128539065.37400      1650.51200                
G09  24283917.56300 127612848.11000      -416.77900                
G14  20693223.24300 108743622.10000      -213.45000                
G15  24894551.08800 130821748.94400     -4060.93000                
G18  21943402.07800 115313356.21800      2557.94500                
G19  21615435.26100 113589878.96800     -2174.04600                
G22  23686783.62100 124474888.06400      2966.27000                
G23  20737011.53300 108973731.12000     -1179.46100                
G27  21290327.29700 111881425.08400      1918.80800                
G28  24148117.84100 126899215.75200     -3015.05700                
E01        22.14200       116.35700         0.00000                
E02        15.33800        80.60200         0.00000                
E03        15.33800        80.60200         0.00000                
E04        22.14200       116.35700         0.00000                
E05        15.33800        80.59900         0.00000                
E06        15.33800        80.59900         0.00000                
> 2025 04 22 14 00 22.0000000  0 16
G03  24459856.81300 128537415.10900      1650.01500                
G09  24283996.93500 127613265.21300      -417.42700                
G14  20693263.93000 108743835.91200      -214.17300                
G15  24895323.85700 130825809.87200     -4060.94800                
G18  21942915.33700 115310798.37800      2557.72900                
G19  21615849.00100 113592053.18400     -2174.39400                
G22  23686219.17500 124471921.88200      2966.08200                
G23  20737236.01300 108974910.76600     -1179.83300                
G27  21289962.21400 111879506.56000      1918.23500                
G28  24148691.61800 126902230.97400     -3015.39800                
E01        22.14200       116.35700         0.00000                
E02        15.33800        80.60200         0.00000                
E03        15.33800        80.60200         0.00000                
E04        22.14200       116.35700         0.00000                
E05        15.33800        80.59900         0.00000                
E06        15.33800        80.59900         0.00000                
> 2025 04 22 14 00 23.0000000  0 16
G03  24459542.87300 128535765.34100      1649.51800                
G09  24284076.43100 127613682.96500      -418.07600                
G14  20693304.75400 108744050.44600      -214.89500                
G15  24896096.63000 130829870.81800     -4060.96600                
G18  21942428.63700 115308240.75200      2557.51300                
G19  21616262.80700 113594227.74900     -2174.74100                
G22  23685654.76500 124468955.88800      2965.89400                
G23  20737460.56300 108976090.78500     -1180.20600                
G27  21289597.24000 111877588.61000      1917.66100                
G28  24149265.46100 126905246.53600     -3015.73800                
E01        22.14200       116.35700         0.00000                
E02        15.33800        80.60200         0.00000                
E03        15.33800        80.60200         0.00000                
E04        22.14200       116.35700         0.00000                
E05        15.33800        80.59900         0.00000                
E06        15.33800        80.59900         0.00000                
> 2025 04 22 14 00 24.0000000  0 16
G03  24459229.02700 128534116.07100      1649.02000                
G09  24284156.05000 127614101.36500      -418.72500                
G14  20693345.71600 108744265.70200      -215.61700                
G15  24896869.40600 130833931.78300     -4060.98300                
G18  21941941.97800 115305683.34300      2557.29700                
G19  21616676.67900 113596402.66100     -2175.08800                
G22  23685090.39100 124465990.08200      2965.70600                
G23  20737685.18400 108977271.17600     -1180.57900                
G27  21289232.37600 111875671.23300      1917.08700                
G28  24149839.36800 126908262.43800     -3016.07800                
E01        22.14200       116.35700         0.00000                
E02        15.33800        80.60200         0.00000                
E03        15.33800        80.60200         0.00000                
E04        22.14200       116.35700         0.00000                
E05        15.33800        80.59900         0.00000                
E06        15.33800        80.59900         0.00000                
> 2025 04 22 14 00 25.0000000  0 16
G03  24458915.27600 128532467.29700      1648.52300                
G09  24284235.79200 127614520.41500      -419.37400                
G14  20693386.81600 108744481.68100      -216.34000                
G15  24897642.18500 130837992.76400     -4061.00100                
G18  21941455.36000 115303126.14900      2557.08100                
G19  21617090.61700 113598577.92000     -2175.43600                
G22  23684526.05300 124463024.46400      2965.51800                
G23  20737909.87600 108978451.94100     -1180.95100                
G27  21288867.62000 111873754.43100      1916.51300                
G28  24150413.34000 126911278.68100     -3016.41900                
E01        22.14200       116.35700         0.00000                
E02        15.33800        80.60200         0.00000                
E03        15.33800        80.60200         0.00000                
E04        22.14200       116.35700         0.00000                
E05        15.33800        80.59900         0.00000                
E06        15.33800        80.59900         0.00000                
> 2025 04 22 14 00 26.0000000  0 16
G03  24458601.61900 128530819.02200      1648.02500                
G09  24284315.65800 127614940.11300      -420.02200                
G14  20693428.05200 108744698.38200      -217.06200                
G15  24898414.96700 130842053.76300     -4061.01800                
G18  21940968.78400 115300569.17200      2556.86500                
G19  21617504.62100 113600753.52600     -2175.78300                
G22  23683961.75000 124460059.03400      2965.33000                
G23  20738134.63900 108979633.07700     -1181.32400                
G27  21288502.97400 111871838.20300      1915.93900                
G28  24150987.37600 126914295.26400     -3016.75900                
E01        22.14200       116.35700         0.00000                
E02        15.33800        80.60200         0.00000                
E03        15.33800        80.60200         0.00000                
E04        22.14200       116.35700         0.00000                
E05        15.33800        80.59900         0.00000                
E06        15.33800        80.59900         0.00000                
> 2025 04 22 14 00 27.0000000  0 16
G03  24458288.05800 128529171.24300      1647.52800                
G09  24284395.64700 127615360.45900      -420.67100                
G14  20693469.42700 108744915.80500      -217.78500                
G15  24899187.75300 130846114.77900     -4061.03500                
G18  21940482.24800 115298012.41200      2556.64900                
G19  21617918.69100 113602929.48000     -2176.13000                
G22  23683397.48400 124457093.79300      2965.14200                
G23  20738359.47200 108980814.58700     -1181.69700                
G27  21288138.43700 111869922.54800      1915.36500                
G28  24151561.47800 126917312.18700     -3017.09900                
E01        22.14200       116.35700         0.00000                
E02        15.33800        80.60200         0.00000                
E03        15.33800        80.60200         0.00000                
E04        22.14200       116.35700         0.00000                
E05        15.33800        80.59900         0.00000                
E06        15.33800        80.59900         0.00000                
> 2025 04 22 14 00 28.0000000  0 16
G03  24457974.59100 128527523.96300      1647.03000                
G09  24284475.76000 127615781.45400      -421.32000                
G14  20693510.93800 108745133.95100      -218.50700                
G15  24899960.54200 130850175.81300     -4061.05300                
G18  21939995.75400 115295455.86700      2556.43200                
G19  21618332.82800 113605105.78000     -2176.47800                
G22  23682833.25300 124454128.73900      2964.95400                
G23  20738584.37700 108981996.46900     -1182.06900                
G27  21287774.01000 111868007.46800      1914.79100                
G28  24152135.64400 126920329.45100     -3017.43900                
E01        22.14200       116.35700         0.00000                
E02        15.33800        80.60200         0.00000                
E03        15.33800        80.60200         0.00000                
E04        22.14200       116.35700         0.00000                
E05        15.33800        80.59900         0.00000                
E06        15.33800        80.59900         0.00000                
> 2025 04 22 14 00 29.0000000  0 16
G03  24457661.21800 128525877.18100      1646.53200                
G09  24284555.99600 127616203.09800      -421.96800                
G14  20693552.58800 108745352.81900      -219.22900                
G15  24900733.33400 130854236.86400     -4061.07000                
G18  21939509.30100 115292899.53800      2556.21600                
G19  21618747.03000 113607282.42900     -2176.82500                
G22  23682269.05800 124451163.87400      2964.76600                
G23  20738809.35300 108983178.72400     -1182.44200                
G27  21287409.69100 111866092.96100      1914.21700                
G28  24152709.87500 126923347.05400     -3017.77900                
E01        22.14200       116.35700         0.00000                
E02        15.33800        80.60200         0.00000                
E03        15.33800        80.60200         0.00000                
E04        22.14200       116.35700         0.00000                
E05        15.33800        80.59900         0.00000                
E06        15.33800        80.59900         0.00000                
> 2025 04 22 14 00 30.0000000  0 16
G03  24457347.94100 128524230.89600      1646.03400                
G09  24284636.35600 127616625.39100      -422.61700                
G14  20693594.37400 108745572.40900      -219.95200                
G15  24901506.13000 130858297.93200     -4061.08700                
G18  21939022.88900 115290343.42600      2556.00000                
G19  21619161.29800 113609459.42400     -2177.17200                
G22  23681704.89800 124448199.19700      2964.57700                
G23  20739034.39900 108984361.35000     -1182.81400                
G27  21287045.48200 111864179.02900      1913.64300                
G28  24153284.17000 126926364.99700     -3018.11800                
E01        22.14200       116.35700         0.00000                
E02        15.33800        80.60200         0.00000                
E03        15.33800        80.60200         0.00000                
E04        22.14200       116.35700         0.00000                
E05        15.33800        80.59900         0.00000                
E06        15.33800        80.59900         0.00000                
> 2025 04 22 14 00 31.0000000  0 16
G03  24457034.75800 128522585.10900      1645.53600                
G09  24284716.83900 127617048.33200      -423.26500                
G14  20693636.29800 108745792.72200      -220.67400                
G15  24902278.92800 130862359.01700     -4061.10400                
G18  21938536.51800 115287787.53100      2555.78300                
G19  21619575.63300 113611636.76700     -2177.51900                
G22  23681140.77500 124445234.70800      2964.38900                
G23  20739259.51600 108985544.34900     -1183.18600                
G27  21286681.38200 111862265.67100      1913.06800                
G28  24153858.53000 126929383.27900     -3018.45800                
E01        22.14200       116.35700         0.00000                
E02        15.33800        80.60200         0.00000                
E03        15.33800        80.60200         0.00000                
E04        22.14200       116.35700         0.00000                
E05        15.33800        80.59900         0.00000                
E06        15.33800        80.59900         0.00000                
> 2025 04 22 14 00 32.0000000  0 16
G03  24456721.67000 128520939.82000      1645.03800                
G09  24284797.44500 127617471.92100      -423.91400                
G14  20693678.36000 108746013.75700      -221.39600                
G15  24903051.73000 130866420.11900     -4061.12100                
G18  21938050.18900 115285231.85200      2555.56700                
G19  21619990.03400 113613814.45600     -2177.86600                
G22  23680576.68700 124442270.40800      2964.20100                
G23  20739484.70400 108986727.72100     -1183.55900                
G27  21286317.39200 111860352.88800      1912.49400                
G28  24154432.95500 126932401.90100     -3018.79800                
E01        22.14200       116.35700         0.00000                
E02        15.33800        80.60200         0.00000                
E03        15.33800        80.60200         0.00000                
E04        22.14200       116.35700         0.00000                
E05        15.33800        80.59900         0.00000                
E06        15.33800        80.59900         0.00000                
> 2025 04 22 14 00 33.0000000  0 16
G03  24456408.67700 128519295.03000      1644.54000                
G09  24284878.17500 127617896.15900      -424.56200                
G14  20693720.55900 108746235.51500      -222.11900                
G15  24903824.53600 130870481.23700     -4061.13800                
G18  21937563.90000 115282676.38900      2555.35000                
G19  21620404.50000 113615992.49300     -2178.21400                
G22  23680012.63600 124439306.29600      2964.01200                
G23  20739709.96300 108987911.46500     -1183.93100                
G27  21285953.51000 111858440.67900      1911.92000                
G28  24155007.44400 126935420.86300     -3019.13700                
E01        22.14200       116.35700         0.00000                
E02        15.33800        80.60200         0.00000                
E03        15.33800        80.60200         0.00000                
E04        22.14200       116.35700         0.00000                
E05        15.33800        80.59900         0.00000                
E06        15.33800        80.59900         0.00000                
> 2025 04 22 14 00 34.0000000  0 16
G03  24456095.77800 128517650.73800      1644.04100                
G09  24284959.02800 127618321.04500      -425.21000                
G14  20693762.89600 108746457.99500      -222.84100                
G15  24904597.34400 130874542.37300     -4061.15400                
G18  21937077.65300 115280121.14300      2555.13400                
G19  21620819.03300 113618170.87800     -2178.56100                
G22  23679448.62000 124436342.37200      2963.82400                
G23  20739935.29300 108989095.58100     -1184.30300                
G27  21285589.73800 111856529.04400      1911.34500                
G28  24155581.99800 126938440.16400     -3019.47700                
E01        22.14200       116.35700         0.00000                
E02        15.33800        80.60200         0.00000                
E03        15.33800        80.60200         0.00000                
E04        22.14200       116.35700         0.00000                
E05        15.33800        80.59900         0.00000                
E06        15.33800        80.59900         0.00000                
> 2025 04 22 14 00 35.0000000  0 16
G03  24455782.97500 128516006.94400      1643.54300                
G09  24285040.00500 127618746.58000      -425.85900                
G14  20693805.37000 108746681.19700      -223.56300                
G15  24905370.15600 130878603.52600     -4061.17100                
G18  21936591.44700 115277566.11400      2554.91700                
G19  21621233.63200 113620349.60900     -2178.90800                
G22  23678884.63900 124433378.63600      2963.63600                
G23  20740160.69400 108990280.07000     -1184.67500                
G27  21285226.07600 111854617.98400      1910.77000                
G28  24156156.61700 126941459.80500     -3019.81600                
E01        22.14200       116.35700         0.00000                
E02        15.33800        80.60200         0.00000                
E03        15.33800        80.60200         0.00000                
E04        22.14200       116.35700         0.00000                
E05        15.33800        80.59900         0.00000                
E06        15.33800        80.59900         0.00000                
> 2025 04 22 14 00 36.0000000  0 16
G03  24455470.26600 128514363.64900      1643.04400                
G09  24285121.10400 127619172.76200      -426.50700                
G14  20693847.98100 108746905.12200      -224.28600                
G15  24906142.97000 130882664.69400     -4061.18700                
G18  21936105.28200 115275011.30100      2554.70000                
G19  21621648.29700 113622528.68700     -2179.25500                
G22  23678320.69500 124430415.08900      2963.44700                
G23  20740386.16500 108991464.93000     -1185.04700                
G27  21284862.52200 111852707.49900      1910.19600                
G28  24156731.30000 126944479.78500     -3020.15500                
E01        22.14200       116.35700         0.00000                
E02        15.33800        80.60200         0.00000                
E03        15.33800        80.60200         0.00000                
E04        22.14200       116.35700         0.00000                
E05        15.33800        80.59900         0.00000                
E06        15.33800        80.59900         0.00000                
> 2025 04 22 14 00 37.0000000  0 16
G03  24455157.65200 128512720.85200      1642.54600                
G09  24285202.32800 127619599.59400      -427.15500                
G14  20693890.73000 108747129.76900      -225.00800                
G15  24906915.78800 130886725.87900     -4061.20400                
G18  21935619.15900 115272456.70600      2554.48300                
G19  21622063.02700 113624708.11300     -2179.60200                
G22  23677756.78700 124427451.73100      2963.25900                
G23  20740611.70800 108992650.16300     -1185.42000                
G27  21284499.07800 111850797.58800      1909.62100                
G28  24157306.04700 126947500.10400     -3020.49400                
E01        22.14200       116.35700         0.00000                
E02        15.33800        80.60200         0.00000                
E03        15.33800        80.60200         0.00000                
E04        22.14200       116.35700         0.00000                
E05        15.33800        80.59900         0.00000                
E06        15.33800        80.59900         0.00000                
> 2025 04 22 14 00 38.0000000  0 16
G03  24454845.13300 128511078.55300      1642.04700                
G09  24285283.67400 127620027.07300      -427.80400                
G14  20693933.61600 108747355.13800      -225.73100                
G15  24907688.60900 130890787.08100     -4061.22000                
G18  21935133.07700 115269902.32700      2554.26600                
G19  21622477.82400 113626887.88500     -2179.94900                
G22  23677192.91400 124424488.56000      2963.07000                
G23  20740837.32100 108993835.76800     -1185.79200                
G27  21284135.74400 111848888.25200      1909.04600                
G28  24157880.85900 126950520.76200     -3020.83300                
E01        22.14200       116.35700         0.00000                
E02        15.33800        80.60200         0.00000                
E03        15.33800        80.60200         0.00000                
E04        22.14200       116.35700         0.00000                
E05        15.33800        80.59900         0.00000                
E06        15.33800        80.59900         0.00000                
> 2025 04 22 14 00 39.0000000  0 16
G03  24454532.70900 128509436.75400      1641.54800                
G09  24285365.14400 127620455.20100      -428.45200                
G14  20693976.64000 108747581.23000      -226.45300                
G15  24908461.43300 130894848.29900     -4061.23600                
G18  21934647.03600 115267348.16400      2554.05000                
G19  21622892.68700 113629068.00500     -2180.29600                
G22  23676629.07800 124421525.57900      2962.88200                
G23  20741063.00400 108995021.74400     -1186.16400                
G27  21283772.51900 111846979.49100      1908.47100                
G28  24158455.73600 126953541.75900     -3021.17200                
E01        22.14200       116.35700         0.00000                
E02        15.33800        80.60200         0.00000                
E03        15.33800        80.60200         0.00000                
E04        22.14200       116.35700         0.00000                
E05        15.33800        80.59900         0.00000                
E06        15.33800        80.59900         0.00000                
> 2025 04 22 14 00 40.0000000  0 16
G03  24454220.38000 128507795.45300      1641.05000                
G09  24285446.73800 127620883.97700      -429.10000                
G14  20694019.80200 108747808.04400      -227.17500                
G15  24909234.26000 130898909.53400     -4061.25300                
G18  21934161.03600 115264794.21900      2553.83300                
G19  21623307.61600 113631248.47200     -2180.64300                
G22  23676065.27700 124418562.78500      2962.69300                
G23  20741288.75900 108996208.09300     -1186.53600                
G27  21283409.40300 111845071.30500      1907.89700                
G28  24159030.67700 126956563.09400     -3021.51100                
E01        22.14200       116.35700         0.00000                
E02        15.33800        80.60200         0.00000                
E03        15.33800        80.60200         0.00000                
E04        22.14200       116.35700         0.00000                
E05        15.33800        80.59900         0.00000                
E06        15.33800        80.59900         0.00000                
> 2025 04 22 14 00 41.0000000  0 16
G03  24453908.14600 128506154.65100      1640.55100                
G09  24285528.45400 127621313.40100      -429.74800                
G14  20694063.10000 108748035.58100      -227.89800                
G15  24910007.09100 130902970.78400     -4061.26900                
G18  21933675.07800 115262240.49100      2553.61600                
G19  21623722.61100 113633429.28600     -2180.99000                
G22  23675501.51200 124415600.18100      2962.50500                
G23  20741514.58500 108997394.81400     -1186.90700                
G27  21283046.39700 111843163.69300      1907.32200                
G28  24159605.68200 126959584.76800     -3021.85000                
E01        22.14200       116.35700         0.00000                
E02        15.33800        80.60200         0.00000                
E03        15.33800        80.60200         0.00000                
E04        22.14200       116.35700         0.00000                
E05        15.33800        80.59900         0.00000                
E06        15.33800        80.59900         0.00000                
> 2025 04 22 14 00 42.0000000  0 16
G03  24453596.00700 128504514.34900      1640.05200                
G09  24285610.29400 127621743.47300      -430.39600                
G14  20694106.53700 108748263.84000      -228.62000                
G15  24910779.92400 130907032.05000     -4061.28500                
G18  21933189.16100 115259686.98000      2553.39900                
G19  21624137.67200 113635610.44600     -2181.33700                
G22  23674937.78300 124412637.76500      2962.31600                
G23  20741740.48100 108998581.90600     -1187.27900                
G27  21282683.50000 111841256.65700      1906.74700                
G28  24160180.75200 126962606.78100     -3022.18800                
E01        22.14200       116.35700         0.00000                
E02        15.33800        80.60200         0.00000                
E03        15.33800        80.60200         0.00000                
E04        22.14200       116.35700         0.00000                
E05        15.33800        80.59900         0.00000                
E06        15.33800        80.59900         0.00000                
> 2025 04 22 14 00 43.0000000  0 16
G03  24453283.96200 128502874.54500      1639.55300                
G09  24285692.25800 127622174.19300      -431.04400                
G14  20694150.11000 108748492.82100      -229.34300                
G15  24911552.76000 130911093.33200     -4061.30100                
G18  21932703.28500 115257133.68600      2553.18100                
G19  21624552.80000 113637791.95400     -2181.68400                
G22  23674374.09000 124409675.53800      2962.12800                
G23  20741966.44800 108999769.37100     -1187.65100                
G27  21282320.71200 111839350.19500      1906.17100                
G28  24160755.88700 126965629.13300     -3022.52700                
E01        22.14200       116.35700         0.00000                
E02        15.33800        80.60200         0.00000                
E03        15.33800        80.60200         0.00000                
E04        22.14200       116.35700         0.00000                
E05        15.33800        80.59900         0.00000                
E06        15.33800        80.59900         0.00000                
> 2025 04 22 14 00 44.0000000  0 16
G03  24452972.01300 128501235.24000      1639.05300                
G09  24285774.34400 127622605.56100      -431.69200                
G14  20694193.82100 108748722.52500      -230.06500                
G15  24912325.59900 130915154.63000     -4061.31600                
G18  21932217.45100 115254580.60900      2552.96400                
G19  21624967.99300 113639973.80900     -2182.03100                
G22  23673810.43300 124406713.49900      2961.93900                
G23  20742192.48500 109000957.20600     -1188.02300                
G27  21281958.03400 111837444.30900      1905.59600                
G28  24161331.08600 126968651.82300     -3022.86500                
E01        22.14200       116.35700         0.00000                
E02        15.33800        80.60200         0.00000                
E03        15.33800        80.60200         0.00000                
E04        22.14200       116.35700         0.00000                
E05        15.33800        80.59900         0.00000                
E06        15.33800        80.59900         0.00000                
> 2025 04 22 14 00 45.0000000  0 16
G03  24452660.15900 128499596.43500      1638.55400                
G09  24285856.55400 127623037.57800      -432.34000                
G14  20694237.67000 108748952.95100      -230.78700                
G15  24913098.44200 130919215.94400     -4061.33200                
G18  21931731.65800 115252027.74900      2552.74700                
G19  21625383.25200 113642156.01000     -2182.37800                
G22  23673246.81100 124403751.64900      2961.75000                
G23  20742418.59400 109002145.41400     -1188.39500                
G27  21281595.46500 111835538.99900      1905.02100                
G28  24161906.34900 126971674.85200     -3023.20300                
E01        22.14200       116.35700         0.00000                
E02        15.33800        80.60200         0.00000                
E03        15.33800        80.60200         0.00000                
E04        22.14200       116.35700         0.00000                
E05        15.33800        80.59900         0.00000                
E06        15.33800        80.59900         0.00000                
> 2025 04 22 14 00 46.0000000  0 16
G03  24452348.39900 128497958.12900      1638.05500                
G09  24285938.88800 127623470.24200      -432.98800                
G14  20694281.65600 108749184.10000      -231.51000                
G15  24913871.28700 130923277.27300     -4061.34800                
G18  21931245.90600 115249475.10700      2552.53000                
G19  21625798.57700 113644338.55900     -2182.72500                
G22  23672683.22600 124400789.98700      2961.56100                
G23  20742644.77300 109003333.99400     -1188.76600                
G27  21281233.00600 111833634.26300      1904.44600                
G28  24162481.67600 126974698.21900     -3023.54200                
E01        22.14200       116.35700         0.00000                
E02        15.33800        80.60200         0.00000                
E03        15.33800        80.60200         0.00000                
E04        22.14200       116.35700         0.00000                
E05        15.33800        80.59900         0.00000                
E06        15.33800        80.59900         0.00000                
> 2025 04 22 14 00 47.0000000  0 16
G03  24452036.73500 128496320.32200      1637.55500                
G09  24286021.34400 127623903.55400      -433.63600                
G14  20694325.78000 108749415.97000      -232.23200                
G15  24914644.13500 130927338.61800     -4061.36300                
G18  21930760.19600 115246922.68200      2552.31200                
G19  21626213.96800 113646521.45400     -2183.07200                
G22  23672119.67600 124397828.51500      2961.37300                
G23  20742871.02300 109004522.94500     -1189.13800                
G27  21280870.65700 111831730.10300      1903.87000                
G28  24163057.06800 126977721.92400     -3023.88000                
E01        22.14200       116.35700         0.00000                
E02        15.33800        80.60200         0.00000                
E03        15.33800        80.60200         0.00000                
E04        22.14200       116.35700         0.00000                
E05        15.33800        80.59900         0.00000                
E06        15.33800        80.59900         0.00000                
> 2025 04 22 14 00 48.0000000  0 16
G03  24451725.16600 128494683.01500      1637.05600                
G09  24286103.92400 127624337.51400      -434.28400                
G14  20694370.04100 108749648.56400      -232.95400                
G15  24915416.98700 130931399.97900     -4061.37900                
G18  21930274.52700 115244370.47400      2552.09500                
G19  21626629.42500 113648704.69600     -2183.41900                
G22  23671556.16300 124394867.23100      2961.18400                
G23  20743097.34300 109005712.26800     -1189.50900                
G27  21280508.41700 111829826.51800      1903.29500                
G28  24163632.52500 126980745.96700     -3024.21800                
E01        22.14200       116.35700         0.00000                
E02        15.33800        80.60200         0.00000                
E03        15.33800        80.60200         0.00000                
E04        22.14200       116.35700         0.00000                
E05        15.33800        80.59900         0.00000                
E06        15.33800        80.59900         0.00000                
> 2025 04 22 14 00 49.0000000  0 16
G03  24451413.69200 128493046.20800      1636.55600                
G09  24286186.62700 127624772.12200      -434.93200                
G14  20694414.43900 108749881.87900      -233.67700                
G15  24916189.84100 130935461.35400     -4061.39400                
G18  21929788.89900 115241818.48400      2551.87700                
G19  21627044.94900 113650888.28600     -2183.76600                
G22  23670992.68500 124391906.13600      2960.99500                
G23  20743323.73500 109006901.96200     -1189.88100                
G27  21280146.28600 111827923.50900      1902.71900                
G28  24164208.04500 126983770.34800     -3024.55600                
E01        22.14200       116.35700         0.00000                
E02        15.33800        80.60200         0.00000                
E03        15.33800        80.60200         0.00000                
E04        22.14200       116.35700         0.00000                
E05        15.33800        80.59900         0.00000                
E06        15.33800        80.59900         0.00000                
> 2025 04 22 14 00 50.0000000  0 16
G03  24451102.31300 128491409.90000      1636.05600                
G09  24286269.45400 127625207.37800      -435.58000                
G14  20694458.97500 108750115.91700      -234.39900                
G15  24916962.69800 130939522.74500     -4061.40900                
G18  21929303.31300 115239266.71100      2551.66000                
G19  21627460.53800 113653072.22200     -2184.11200                
G22  23670429.24300 124388945.23000      2960.80600                
G23  20743550.19700 109008092.02800     -1190.25200                
G27  21279784.26500 111826021.07500      1902.14400                
G28  24164783.63000 126986795.06700     -3024.89400                
E01        22.14200       116.35700         0.00000                
E02        15.33800        80.60200         0.00000                
E03        15.33800        80.60200         0.00000                
E04        22.14200       116.35700         0.00000                
E05        15.33800        80.59900         0.00000                
E06        15.33800        80.59900         0.00000                
> 2025 04 22 14 00 51.0000000  0 16
G03  24450791.02900 128489774.09200      1635.55600                
G09  24286352.40300 127625643.28100      -436.22800                
G14  20694503.64900 108750350.67800      -235.12200                
G15  24917735.55800 130943584.15200     -4061.42400                
G18  21928817.76800 115236715.15600      2551.44200                
G19  21627876.19300 113655256.50500     -2184.45900                
G22  23669865.83700 124385984.51200      2960.61700                
G23  20743776.72900 109009282.46500     -1190.62400                
G27  21279422.35300 111824119.21700      1901.56800                
G28  24165359.27900 126989820.12400     -3025.23100                
E01        22.14200       116.35700         0.00000                
E02        15.33800        80.60200         0.00000                
E03        15.33800        80.60200         0.00000                
E04        22.14200       116.35700         0.00000                
E05        15.33800        80.59900         0.00000                
E06        15.33800        80.59900         0.00000                
> 2025 04 22 14 00 52.0000000  0 16
G03  24450479.84000 128488138.78400      1635.05600                
G09  24286435.47600 127626079.83300      -436.87500                
G14  20694548.45900 108750586.16000      -235.84400                
G15  24918508.42100 130947645.57400     -4061.43900                
G18  21928332.26500 115234163.81900      2551.22500                
G19  21628291.91400 113657441.13400     -2184.80600                
G22  23669302.46800 124383023.98400      2960.42900                
G23  20744003.33300 109010473.27400     -1190.99500                
G27  21279060.55100 111822217.93400      1900.99200                
G28  24165934.99300 126992845.51800     -3025.56900                
E01        22.14200       116.35700         0.00000                
E02        15.33800        80.60200         0.00000                
E03        15.33800        80.60200         0.00000                
E04        22.14200       116.35700         0.00000                
E05        15.33800        80.59900         0.00000                
E06        15.33800        80.59900         0.00000                
> 2025 04 22 14 00 53.0000000  0 16
G03  24450168.74700 128486503.97600      1634.55600                
G09  24286518.67200 127626517.03200      -437.52300                
G14  20694593.40800 108750822.36500      -236.56600                
