     3.05           OBSERVATION DATA    M                   RINEX VERSION / TYPE
GSPF V1.7.0                             20250903 135311 UTC PGM / RUN BY / DATE
S101                                                        MARKER NAME
NON_GEODETIC                                                MARKER TYPE
                                                            OBSERVER / AGENCY
                                                            REC # / TYPE / VERS
                                                            ANT # / TYPE
  4181982.8803   860747.9921  4723076.5361                  APPROX POSITION XYZ
        0.0000        0.0000        0.0000                  ANTENNA: DELTA H/E/N
G    4 C1C L1C D1C S1C                                      SYS / # / OBS TYPES
E    4 C1B L1B D1B S1B                                      SYS / # / OBS TYPES
  2025     4    22    14     0    1.0000000     GPS         TIME OF FIRST OBS
G L1C  0.00000   0                                          SYS / PHASE SHIFT
E L1B  0.00000   0                                          SYS / PHASE SHIFT
 C1C    0.000 C1P    0.000 C2C    0.000 C2P    0.000        GLONASS COD/PHS/BIS
                                                            END OF HEADER
> 2025 04 22 14 00  1.0000000  0 14
G03  24466494.08100 128572294.18800      1666.84800                
G09  24282335.84500 127604536.12400      -395.40700                
G14  20692427.50400 108739440.46300      -201.92500                
G15  24879106.92100 130740589.29800     -4074.81100                
G18  21953129.43800 115364473.84100      2566.13600                
G19  21607192.88200 113546564.97200     -2168.97600                
G22  23698060.89100 124534150.51800      2962.16600                
G23  20732544.74700 108950258.00100     -1168.46000                
G27  21297663.49500 111919977.06600      1922.52100                
G28  24136669.74500 126839055.60500     -2995.75800                
E02        43.59200       229.07600         8.98000                
E03        23.66300       124.35000        14.39000                
E04         5.45100        28.64500        -9.34900                
E05        28.98000       152.29000       -13.50800                
> 2025 04 22 14 00  2.0000000  0 14
G03  24466176.77900 128570626.75300      1668.00300                
G09  24282411.30200 127604932.65300      -397.67000                
G14  20692466.08400 108739643.20300      -203.54800                
G15  24879882.25100 130744663.68500     -4073.95000                
G18  21952641.26200 115361908.46300      2564.60300                
G19  21607605.53100 113548733.45600     -2167.99400                
G22  23697497.36400 124531189.16400      2960.55100                
G23  20732767.08800 108951426.40900     -1168.36700                
G27  21297297.62700 111918054.41300      1922.79900                
G28  24137239.76000 126842051.05100     -2995.17800                
E02        41.80700       219.69500         9.77500                
E03        20.89200       109.78900        14.71800                
E04         7.66200        40.26200       -13.20700                
E05        31.50000       165.53500       -12.97300                
> 2025 04 22 14 00  3.0000000  0 14
G03  24465859.26700 128568958.21800      1669.04100                
G09  24282487.19900 127605331.49600      -400.03000                
G14  20692504.96800 108739847.54000      -205.11500                
G15  24880657.39900 130748737.11400     -4072.89700                
G18  21952153.38300 115359344.63900      2563.03200                
G19  21608017.99200 113550900.95200     -2167.00400                
G22  23696934.13200 124528229.36100      2959.06900                
G23  20732989.41600 108952594.75300     -1168.33200                
G27  21296931.69500 111916131.43000      1923.17700                
G28  24137809.68200 126845046.01400     -2994.79200                
E02        39.87400       209.53800        10.53300                
E03        18.06800        94.94700        14.94600                
E04        10.32200        54.24400       -14.52700                
E05        33.91400       178.21800       -12.38400                
> 2025 04 22 14 00  4.0000000  0 14
G03  24465541.57100 128567288.71300      1669.94100                
G09  24282563.55300 127605732.73700      -402.46300                
G14  20692544.14400 108740053.41100      -206.61500                
G15  24881432.32900 130752809.40000     -4071.66600                
G18  21951665.80400 115356782.39600      2561.44500                
G19  21608430.26500 113553067.46100     -2166.02400                
G22  23696371.16800 124525270.96400      2957.74000                
G23  20733211.74400 108953763.09200     -1168.36000                
G27  21296565.68300 111914208.02600      1923.64000                
G28  24138379.55000 126848040.69100     -2994.60800                
E02        37.80000       198.64200        11.25000                
E03        15.21300        79.94300        15.03400                
E04        13.13700        69.03300       -14.96300                
E05        36.21000       190.28600       -11.74400                
> 2025 04 22 14 00  5.0000000  0 14
G03  24465223.71800 128565618.38600      1670.68200                
G09  24282640.37400 127606136.43800      -404.94400                
G14  20692583.59800 108740260.74400      -208.03700                
G15  24882207.01000 130756880.37300     -4070.27700                
G18  21951178.52800 115354221.74000      2559.86000                
G19  21608842.35400 113555233.00500     -2165.07500                
G22  23695808.44100 124522313.81400      2956.57900                
G23  20733434.08300 108954931.49300     -1168.45600                
G27  21296199.57700 111912284.12100      1924.17400                
G28  24138949.40400 126851035.29000     -2994.63600                
E02        35.59500       187.05100        11.92400                
E03        12.36000        64.95400        14.89300                
E04        15.99400        84.05000       -15.02700                
E05        38.38000       201.69000       -11.05800                
> 2025 04 22 14 00  6.0000000  0 14
G03  24464905.74100 128563947.40400      1671.24700                
G09  24282717.67000 127606542.63200      -407.44500                
G14  20692623.31500 108740469.45600      -209.37000                
G15  24882981.41200 130760949.88600     -4068.74800                
G18  21950691.55100 115351662.65900      2558.29800                
G19  21609254.26700 113557397.62100     -2164.17400                
G22  23695245.91800 124519357.73400      2955.60100                
G23  20733656.44800 108956100.02600     -1168.62400                
G27  21295833.36300 111910359.65400      1924.76200                
G28  24139519.28200 126854030.02300     -2994.87800                
E02        33.26500       174.81000        12.55000                
E03         9.57300        50.30500        14.29200                
E04        18.84400        99.02300       -14.89500                
E05        40.41600       212.38800       -10.32900                
> 2025 04 22 14 00  7.0000000  0 14
G03  24464587.67400 128562275.95200      1671.62100                
G09  24282795.44200 127606951.32600      -409.94100                
G14  20692663.27500 108740679.45100      -210.60500                
G15  24883755.51200 130765017.80900     -4067.10300                
G18  21950204.86800 115349105.12200      2556.77700                
G19  21609666.01400 113559561.37000     -2163.34000                
G22  23694683.56200 124516402.53700      2954.81600                
G23  20733878.85100 108957268.76400     -1168.86700                
G27  21295467.03300 111908434.57900      1925.38800                
G28  24140089.22800 126857025.10800     -2995.33700                
E02        30.82100       161.96800        13.12500                
E03         6.99200        36.74200        12.52600                
E04        21.65500       113.79800       -14.63700                
E05        42.30900       222.33600        -9.56100                
> 2025 04 22 14 00  8.0000000  0 14
G03  24464269.55600 128560604.22800      1671.79000                
G09  24282873.68700 127607362.50200      -412.40400                
G14  20692703.46100 108740890.63000      -211.73500                
G15  24884529.29000 130769084.04000     -4065.36500                
G18  21949718.46800 115346549.07700      2555.31700                
G19  21610077.61100 113561724.32400     -2162.58900                
G22  23694121.33700 124513448.02400      2954.23300                
G23  20734101.30800 108958437.78400     -1169.18700                
G27  21295100.58200 111906508.86700      1926.03400                
G28  24140659.28100 126860020.75900     -2996.01200                
E02        28.27300       148.57800        13.64400                
E03         5.01300        26.34600         7.39600                
E04        24.40800       128.26600       -14.28600                
E05        44.05300       231.49800        -8.75700                
> 2025 04 22 14 00  9.0000000  0 15
G03  24463951.42500 128558932.44000      1671.74600                
G09  24282952.39400 127607776.11400      -414.80800                
G14  20692743.85200 108741102.88500      -212.75500                
G15  24885302.73100 130773148.49600     -4063.56000                
G18  21949232.34000 115343994.45400      2553.93400                
G19  21610489.07400 113563886.57500     -2161.93800                
G22  23693559.20300 124510493.99000      2953.85900                
G23  20734323.83400 108959607.16300     -1169.58600                
G27  21294734.00800 111904582.50600      1926.68300                
G28  24141229.48300 126863017.19000     -2996.89600                
E01        44.79200       235.38200         8.38100                
E02        25.63200       134.70000        14.10200                
E03         4.55300        23.92600        -3.06500                
E04        27.08700       142.34500       -13.85900                
E05        45.64000       239.83800        -7.91900                
> 2025 04 22 14 00 10.0000000  0 14
G03  24463633.32400 128557260.80600      1671.48100                
G09  24283031.55200 127608192.09000      -417.12900                
G14  20692784.42600 108741316.10100      -213.65900                
G15  24886075.82300 130777211.12600     -4061.71400                
G18  21948746.46600 115341441.16800      2552.64700                
G19  21610900.42300 113566048.23200     -2161.40100                
G22  23692997.12000 124507540.22500      2953.69500                
G23  20734546.44200 108960776.97900     -1170.06100                
G27  21294367.31100 111902655.50100      1927.31700                
G28  24141799.87300 126866014.60700     -2997.98300                
E01        43.11800       226.58800         9.20100                
E02        22.91100       120.39800        14.48900                
E03         5.97700        31.41200       -10.83800                
E04        29.67900       155.96300       -13.36700                
> 2025 04 22 14 00 11.0000000  0 14
G03  24463315.29400 128555589.54900      1670.99300                
G09  24283111.14100 127608610.33500      -419.34100                
G14  20692825.16000 108741530.16300      -214.44500                
G15  24886848.56300 130781271.89900     -4059.85300                
G18  21948260.82600 115338889.11500      2551.47000                
G19  21611311.68200 113568209.41300     -2160.98900                
G22  23692435.04900 124504586.51900      2953.74100                
G23  20734769.14900 108961947.31000     -1170.61300                
G27  21294000.49700 111900727.87700      1927.91900                
G28  24142370.48800 126869013.20800     -2999.26100                
E01        41.29200       216.99200         9.98600                
E02        20.12400       105.75000        14.79200                
E03         8.36200        43.94200       -13.71500                
E04        32.17100       169.06000       -12.81700                
> 2025 04 22 14 00 12.0000000  0 14
G03  24462997.37900 128553918.89200      1670.28100                
G09  24283191.14000 127609030.72900      -421.42300                
G14  20692866.03300 108741744.95200      -215.11300                
G15  24887620.94900 130785330.81600     -4058.00500                
G18  21947775.39900 115336338.17900      2550.41700                
G19  21611722.87600 113570370.25100     -2160.71600                
G22  23691872.94900 124501632.66300      2953.99400                
G23  20734991.96700 108963118.22900     -1171.23900                
G27  21293633.57200 111898799.67400      1928.47200                
G28  24142941.36300 126872013.17800     -3000.71800                
E01        39.32000       206.62900        10.73300                
E02        17.28800        90.85000        14.98700                
E03        11.08200        58.23700       -14.70200                
E04        34.55300       181.57900       -12.21300                
> 2025 04 22 14 00 13.0000000  0 14
G03  24462679.62000 128552249.05700      1669.34900                
G09  24283271.52000 127609453.13100      -423.35400                
G14  20692907.02200 108741960.34900      -215.66200                
G15  24888392.98700 130789387.90200     -4056.19700                
G18  21947290.15900 115333788.22700      2549.50100                
G19  21612134.03200 113572530.88700     -2160.58800                
G22  23691310.78100 124498678.45300      2954.44800                
G23  20735214.91200 108964289.80900     -1171.93500                
G27  21293266.54800 111896870.94900      1928.96000                
G28  24143512.53100 126875014.68700     -3002.33700                
E01        37.21000       195.53900        11.43900                
E02        14.43000        75.82800        15.02400                
E03        13.91600        73.12700       -15.00700                
E04        36.81600       193.47000       -11.56100                
> 2025 04 22 14 00 14.0000000  0 14
G03  24462362.05800 128550580.26200      1668.20200                
G09  24283352.25200 127609877.38100      -425.11600                
G14  20692948.10400 108742176.23800      -216.09700                
G15  24889164.68600 130793443.21100     -4054.45500                
G18  21946805.08000 115331239.11900      2548.73100                
G19  21612545.17700 113574691.47300     -2160.61400                
G22  23690748.50900 124495723.69200      2955.09300                
G23  20735437.99500 108965462.11900     -1172.69600                
G27  21292899.43800 111894941.77600      1929.36700                
G28  24144084.02200 126878017.88900     -3004.10000                
E01        34.96900       183.76600        12.10000                
E02        11.58700        60.89000        14.79100                
E03        16.77500        88.15100       -15.00700                
E04        38.95000       204.68600       -10.86300                
> 2025 04 22 14 00 15.0000000  0 14
G03  24462044.73500 128548912.71700      1666.85100                
G09  24283433.30200 127610303.30100      -426.69200                
G14  20692989.25900 108742392.50500      -216.42000                
G15  24889936.06300 130797496.82100     -4052.80300                
G18  21946320.13300 115328690.70600      2548.11500                
G19  21612956.34300 113576852.16300     -2160.79800                
G22  23690186.09700 124492768.19500      2955.91800                
G23  20735661.22800 108966635.22000     -1173.51700                
G27  21292532.26000 111893012.24100      1929.68000                
G28  24144655.85900 126881022.91800     -3005.98700                
E01        32.60800       171.35500        12.71300                
E02         8.83600        46.43300        13.97800                
E03        19.61600       103.08400       -14.83500                
E04        40.94800       215.18200       -10.12300                
> 2025 04 22 14 00 16.0000000  0 14
G03  24461727.68800 128547246.62100      1665.30700                
G09  24283514.63300 127610730.69800      -428.06800                
G14  20693030.46400 108742609.04200      -216.63700                
G15  24890707.13600 130801548.83500     -4051.26700                
G18  21945835.28800 115326142.82800      2547.65800                
G19  21613367.55900 113579013.11700     -2161.14200                
G22  23689623.51100 124489811.79000      2956.90700                
G23  20735884.62400 108967809.16900     -1174.39200                
G27  21292165.03200 111891082.44700      1929.88500                
G28  24145228.06600 126884029.88500     -3007.97400                
E01        30.13500       158.35800        13.27300                
E02         6.36200        33.43200        11.60900                
E03        22.41400       117.78400       -14.54900                
E04        42.80100       224.91900        -9.34500                
> 2025 04 22 14 00 17.0000000  0 14
G03  24461410.95100 128545582.15900      1663.58500                
G09  24283596.20600 127611159.36700      -429.23500                
G14  20693071.70200 108742825.74700      -216.75600                
G15  24891477.92900 130805599.37900     -4049.86800                
G18  21945350.51500 115323595.32700      2547.36500                
G19  21613778.85500 113581174.49400     -2161.64600                
G22  23689060.72400 124486854.32000      2958.04400                
G23  20736108.19000 108968984.01700     -1175.31300                
G27  21291797.77700 111889152.50700      1929.97100                
G28  24145800.65900 126887038.88000     -3010.03900                
E01        27.56000       144.82900        13.77600                
E02         4.69000        24.64600         4.93300                
E03        25.14800       132.15400       -14.17600                
E04        44.50200       233.85900        -8.53100                
> 2025 04 22 14 00 18.0000000  0 14
G03  24461094.55800 128543919.50100      1661.70400                
G09  24283677.98100 127611589.09600      -430.18600                
G14  20693112.95300 108743042.52400      -216.78600                
G15  24892248.47000 130809648.60300     -4048.62700                
G18  21944865.78200 115321048.03500      2547.23700                
G19  21614190.26300 113583336.45600     -2162.30900                
G22  23688497.70700 124483895.64800      2959.31000                
G23  20736331.93500 108970159.80600     -1176.27300                
G27  21291430.51700 111887222.54300      1929.93000                
G28  24146373.65000 126890049.96800     -3012.15600                
E01        24.89600       130.82800        14.21500                
E02         4.78600        25.15000        -5.83200                
E03        27.80400       146.11300       -13.73100                
E06        44.34900       233.05800         8.60900                
> 2025 04 22 14 00 19.0000000  0 14
G03  24460778.53600 128542258.79400      1659.68300                
G09  24283759.91500 127612019.66500      -430.91500                
G14  20693154.20300 108743259.29100      -216.73600                
G15  24893018.79200 130813696.67200     -4047.56300                
G18  21944381.05700 115318500.79000      2547.27100                
G19  21614601.81100 113585499.15700     -2163.12500                
G22  23687934.43900 124480935.65400      2960.68400                
G23  20736555.86600 108971336.57100     -1177.26200                
G27  21291063.27800 111885292.68800      1929.75200                
G28  24146947.04700 126893063.19000     -3014.30100                
E01        22.15500       116.42400        14.58000                
E02         6.57200        34.53500       -11.95300                
E03        30.37000       159.59500       -13.22300                
E06        42.63400       224.04100         9.41900                
> 2025 04 22 14 00 20.0000000  0 14
G03  24460462.91000 128540600.17100      1657.54400                
G09  24283841.96700 127612450.85100      -431.42100                
G14  20693195.43600 108743475.97300      -216.61700                
G15  24893788.93000 130817743.77200     -4046.68900                
G18  21943896.31100 115315953.43000      2547.46500                
G19  21615013.52900 113587662.74800     -2164.08800                
G22  23687370.90100 124477974.24100      2962.14300                
G23  20736779.98700 108972514.33700     -1178.27400                
G27  21290696.08600 111883363.08000      1929.43400                
G28  24147520.85300 126896078.55900     -3016.44600                
E01        19.35200       101.69700        14.85700                
E02         9.08600        47.74700       -14.09500                
E03        32.83300       172.53900       -12.65700                
E06        40.76700       214.23100        10.19400                
> 2025 04 22 14 00 21.0000000  0 14
G03  24460147.70100 128538943.73400      1655.31100                
G09  24283924.09500 127612882.43300      -431.70700                
G14  20693236.64100 108743692.50700      -216.44300                
G15  24894558.92000 130821790.09900     -4046.02100                
G18  21943411.51300 115313405.80000      2547.81300                
G19  21615425.44300 113589827.37200     -2165.18900                
G22  23686807.07900 124475011.33600      2963.66400                
G23  20737004.30200 108973693.12000     -1179.29700                
G27  21290328.96800 111881433.86400      1928.97000                
G28  24148095.06400 126899096.06200     -3018.56700                
E01        16.50800        86.74900        15.01500                
E02        11.85100        62.27600       -14.83000                
E03        35.18400       184.89200       -12.04000                
E06        38.75600       203.66500        10.93000                
> 2025 04 22 14 00 22.0000000  0 14
G03  24459832.92400 128537289.56900      1653.00800                
G09  24284006.25600 127613314.19300      -431.77800                
G14  20693277.80800 108743908.84400      -216.22500                
G15  24895328.80300 130825835.86300     -4045.56600                
G18  21942926.63400 115310857.74800      2548.30600                
G19  21615837.57900 113591993.16200     -2166.41700                
G22  23686242.96300 124472046.89000      2965.22200                
G23  20737228.81200 108974872.92900     -1180.32300                
G27  21289961.95200 111879505.18400      1928.36000                
G28  24148669.67500 126902115.66300     -3020.63700                
E01        13.64900        71.72500        14.99500                
E02        14.69700        77.23400       -15.02900                
E03        37.41200       196.60300       -11.37500                
E06        36.61000       192.38400        11.62400                
> 2025 04 22 14 00 23.0000000  0 14
G03  24459518.58900 128535637.72900      1650.66300                
G09  24284088.41100 127613745.92000      -431.64200                
G14  20693318.93100 108744124.94600      -215.97700                
G15  24896098.62100 130829881.28400     -4045.33300                
G18  21942441.64900 115308309.13500      2548.93400                
G19  21616249.96000 113594160.23900     -2167.76000                
G22  23685678.55000 124469080.87600      2966.79300                
G23  20737453.51700 108976053.76200     -1181.34200                
G27  21289595.06700 111877577.18800      1927.60400                
G28  24149244.67400 126905137.29900     -3022.63200                
E01        10.82100        56.86500        14.64800                
E02        17.55500        92.25100       -14.97400                
E03        39.51000       207.62700       -10.66500                
E06        34.33500       180.43200        12.27200                
> 2025 04 22 14 00 24.0000000  0 14
G03  24459204.70300 128533988.24600      1648.30000                
G09  24284170.52100 127614177.41100      -431.31000                
G14  20693360.00500 108744340.79200      -215.71400                
G15  24896868.41600 130833926.58400     -4045.32400                
G18  21941956.53300 115305759.83100      2549.68500                
G19  21616662.60700 113596328.71100     -2169.20400                
G22  23685113.83800 124466113.29700      2968.35000                
G23  20737678.41500 108977235.60600     -1182.34500                
G27  21289228.33900 111875650.02000      1926.70400                
G28  24149820.04200 126908160.88200     -3024.52700                
E01         8.11900        42.66700        13.55800                
E02        20.38600       107.13200       -14.76700                
E03        41.46900       217.92000        -9.91400                
E06        31.94200       167.85600        12.87100                
> 2025 04 22 14 00 25.0000000  0 14
G03  24458891.26500 128532341.12200      1645.94800                
G09  24284252.55000 127614608.47900      -430.79700                
G14  20693401.02900 108744556.37300      -215.44900                
G15  24897638.23100 130837971.98700     -4045.54100                
G18  21941471.26300 115303209.72000      2550.54500                
G19  21617075.53600 113598498.67000     -2170.73200                
G22  23684548.83400 124463144.17800      2969.86900                
G23  20737903.50100 108978418.44200     -1183.32400                
G27  21288861.79600 111873723.82200      1925.66600                
G28  24150395.76000 126911186.30100     -3026.30100                
E01         5.78800        30.41800        10.37700                
E02        23.16800       121.75000       -14.45500                
E03        43.28100       227.44300        -9.12600                
E06        29.44000       154.70800        13.41600                
> 2025 04 22 14 00 26.0000000  0 15
G03  24458578.27300 128530696.33300      1643.63400                
G09  24284334.46600 127615038.95100      -430.12000                
G14  20693442.00300 108744771.69400      -215.19700                
G15  24898408.10800 130842017.71900     -4045.98000                
G18  21940985.82000 115300658.70100      2551.49900                
G19  21617488.76300 113600670.19200     -2172.32900                
G22  23683983.54500 124460173.56800      2971.32600                
G23  20738128.77000 108979602.24000     -1184.26800                
G27  21288495.46200 111871798.72800      1924.49600                
G28  24150971.80300 126914213.42500     -3027.93200                
E01         4.50700        23.68300         2.04000                
E02        25.88300       136.01500       -14.06200                
E03        44.94000       236.16000        -8.30300                
E05        45.49800       239.09200         7.99900                
E06        26.84000       141.04400        13.90200                
> 2025 04 22 14 00 27.0000000  0 14
G03  24458265.71500 128529053.83000      1641.38200                
G09  24284416.23900 127615468.67000      -429.29600                
G14  20693482.93200 108744986.77500      -214.97200                
G15  24899178.08900 130846063.99700     -4046.63500                
G18  21940500.18800 115298106.68800      2552.53000                
G19  21617902.29900 113602843.33800     -2173.97500                
G22  23683417.98800 124457201.54400      2972.69600                
G23  20738354.21600 108980786.96300     -1185.17100                
G27  21288129.36400 111869874.86600      1923.20300                
G28  24151548.14100 126917242.10100     -3029.40300                
E01         5.15000        27.06500        -8.11900                
E02        28.51600       149.85000       -13.59800                
E05        43.89600       230.67300         8.83300                
E06        24.15300       126.92600        14.32200                
> 2025 04 22 14 00 28.0000000  0 14
G03  24457953.57700 128527413.53700      1639.21900                
G09  24284497.84300 127615897.50200      -428.34900                
G14  20693523.82100 108745201.65000      -214.78700                
G15  24899948.21500 130850111.03600     -4047.49600                
G18  21940014.35500 115295553.61400      2553.61900                
G19  21618316.15100 113605018.14600     -2175.65200                
G22  23682852.18000 124454228.20100      2973.95800                
G23  20738579.82800 108981972.56400     -1186.02400                
G27  21287763.52200 111867952.35400      1921.79700                
G28  24152124.74200 126920272.16000     -3030.69600                
E01         7.21500        37.91700       -12.78100                
E02        31.05400       163.19100       -13.07400                
E05        42.13800       221.43600         9.63500                
E06        21.39400       112.42500        14.66500                
> 2025 04 22 14 00 29.0000000  0 14
G03  24457641.84100 128525775.35200      1637.16800                
G09  24284579.25700 127616325.33300      -427.30000                
G14  20693564.68000 108745416.36700      -214.65600                
G15  24900718.52400 130854159.03500     -4048.55300                
G18  21939528.30900 115292999.42800      2554.74900                
G19  21618730.32400 113607194.63900     -2177.34100                
G22  23682286.14400 124451253.66100      2975.09000                
G23  20738805.59700 108983158.99000     -1186.82000                
G27  21287397.95800 111866031.30100      1920.29000                
G28  24152701.57100 126923303.41800     -3031.79900                
E01         9.82600        51.63700       -14.38000                
E02        33.48800       175.97900       -12.49400                
E05        40.23100       211.41600        10.39900                
E06        18.57800        97.62600        14.91400                
> 2025 04 22 14 00 30.0000000  0 14
G03  24457330.48300 128524139.15200      1635.25200                
G09  24284660.46300 127616752.07600      -426.17400                
G14  20693605.52100 108745630.98500      -214.59100                
G15  24901489.05100 130858208.18200     -4049.79000                
G18  21939042.04700 115290444.10100      2555.89900                
G19  21619144.81800 113609372.82000     -2179.02400                
G22  23681719.90600 124448278.06100      2976.07300                
G23  20739031.51200 108984346.18200     -1187.55400                
G27  21287032.68800 111864111.79900      1918.69600                
G28  24153278.59100 126926335.67900     -3032.69900                
E01        12.62400        66.33900       -14.92100                
E02        35.80600       188.16200       -11.86300                
E05        38.18300       200.65100        11.12400                
E06        15.72600        82.64100        15.03100                
> 2025 04 22 14 00 31.0000000  0 14
G03  24457019.47400 128522504.79200      1633.49200                
G09  24284741.45000 127617177.66400      -424.99700                
G14  20693646.35600 108745845.57500      -214.60400                
G15  24902259.82900 130862258.64800     -4051.18900                
G18  21938555.56500 115287887.62300      2557.05000                
G19  21619559.63000 113611552.67200     -2180.68000                
G22  23681153.49600 124445301.55900      2976.89100                
G23  20739257.56100 108985534.07400     -1188.22000                
G27  21286667.73000 111862193.92800      1917.02900                
G28  24153855.76300 126929368.73600     -3033.39000                
E01        15.47800        81.34000       -15.03400                
E02        38.00000       199.68900       -11.18500                
E05        36.00000       189.18300        11.80600                
E06        12.87000        67.63100        14.94200                
> 2025 04 22 14 00 32.0000000  0 14
G03  24456708.78500 128520872.10700      1631.90500                
G09  24284822.21000 127617602.06100      -423.79500                
G14  20693687.20200 108746060.22100      -214.70400                
G15  24903030.88700 130866310.58700     -4052.73100                
G18  21938068.86500 115285329.99900      2558.18300                
G19  21619974.75300 113613734.15900     -2182.29100                
G22  23680586.94800 124442324.32700      2977.53000                
G23  20739483.72900 108986722.59500     -1188.81300                
G27  21286303.09400 111860277.75500      1915.30600                
G28  24154433.04500 126932402.37600     -3033.86600                
E01        18.33200        96.33500       -14.93000                
E02        40.06000       210.51700       -10.46400                
E05        33.69300       177.05500        12.44100                
E06        10.06400        52.88500        14.45400                
> 2025 04 22 14 00 33.0000000  0 14
G03  24456398.37900 128519240.91600      1630.50700                
G09  24284902.74100 127618025.25400      -422.59400                
G14  20693728.07600 108746275.01500      -214.90100                
G15  24903802.25100 130870364.13000     -4054.39300                
G18  21937581.95400 115282771.26100      2559.27800                
G19  21620390.17700 113615917.22600     -2183.83800                
G22  23680020.29600 124439346.55100      2977.97700                
G23  20739710.00300 108987911.67300     -1189.33100                
G27  21285938.79000 111858363.32600      1913.54200                
G28  24155010.39800 126935436.38300     -3034.12400                
E01        21.15200       111.15500       -14.69100                
E02        41.97900       220.60400        -9.70200                
E05        31.26900       164.31800        13.02500                
E06         7.42800        39.03400        12.99600                
> 2025 04 22 14 00 34.0000000  0 14
G03  24456088.22100 128517611.02300      1629.31100                
G09  24284983.04600 127618447.25900      -421.42200                
G14  20693768.99700 108746490.05700      -215.20200                
G15  24904573.94000 130874419.38500     -4056.15200                
G18  21937094.83900 115280211.45500      2560.31500                
G19  21620805.88800 113618101.80200     -2185.30500                
G22  23679453.57800 124436368.42800      2978.22300                
G23  20739936.36800 108989101.23000     -1189.77200                
G27  21285574.82500 111856450.67400      1911.75500                
G28  24155587.77900 126938470.54100     -3034.16700                
E01        23.91700       125.68500       -14.35500                
E02        43.75000       229.91000        -8.90400                
E05        28.73900       151.02300        13.55500                
E06         5.28900        27.79600         8.73700                
> 2025 04 22 14 00 35.0000000  0 13
G03  24455778.27000 128515982.22000      1628.32800                
G09  24285063.13200 127618868.11600      -420.30500                
G14  20693809.98600 108746705.45500      -215.61300                
G15  24905345.97200 130878476.43800     -4057.98400                
G18  21936607.53300 115277650.64700      2561.27900                
G19  21621221.87000 113620287.79800     -2186.67600                
G22  23678886.83300 124433390.16200      2978.26300                
G23  20740162.81000 108990291.18800     -1190.13300                
G27  21285211.20000 111854539.81300      1909.96200                
G28  24156165.14700 126941504.63500     -3033.99800                
E01        26.61100       139.84000       -13.94200                
E05        26.11400       137.22900        14.02400                
E06         4.48100        23.54900        -1.06500                
> 2025 04 22 14 00 36.0000000  0 14
G03  24455468.48500 128514354.29100      1627.56300                
G09  24285143.01300 127619287.89400      -419.26700                
G14  20693851.06400 108746921.32200      -216.13900                
G15  24906118.35600 130882535.34600     -4059.86000                
G18  21936120.05300 115275088.92000      2562.15000                
G19  21621638.10100 113622475.11000     -2187.93500                
G22  23678320.10000 124430411.96100      2978.09200                
G23  20740389.31200 108991481.46900     -1190.41700                
G27  21284847.91600 111852630.74100      1908.18200                
G28  24156742.46500 126944538.45700     -3033.62500                
E01        29.21900       153.54600       -13.46100                
E04        43.43100       228.22900         9.05600                
E05        23.40600       122.99800        14.42400                
E06         5.62200        29.54100        -9.90700                
> 2025 04 22 14 00 37.0000000  0 14
G03  24455158.82500 128512727.01600      1627.02200                
G09  24285222.70700 127619706.68500      -418.33400                
G14  20693892.25300 108747137.77300      -216.78300                
G15  24906891.10000 130886596.14400     -4061.75600                
G18  21935632.41700 115272526.37500      2562.91400                
G19  21622054.56100 113624663.62000     -2189.07000                
G22  23677753.42000 124427434.03600      2977.71100                
G23  20740615.86200 108992671.99400     -1190.62200                
G27  21284484.96800 111850723.43600      1906.43000                
G28  24157319.69200 126947571.80700     -3033.05700                
E01        31.73000       166.74200       -12.92100                
E04        41.63100       218.77400         9.84700                
E05        20.62900       108.40700        14.74400                
E06         7.89800        41.50200       -13.39800                
> 2025 04 22 14 00 38.0000000  0 14
G03  24454849.24700 128511100.16900      1626.70400                
G09  24285302.23400 127620124.60400      -417.52700                
G14  20693933.57600 108747354.92800      -217.54600                
G15  24907664.20500 130890658.83600     -4063.64400                
G18  21935144.64600 115269963.12400      2563.55700                
G19  21622471.22400 113626853.19800     -2190.06800                
G22  23677186.83200 124424456.59700      2977.12200                
G23  20740842.44300 108993862.68700     -1190.75300                
G27  21284122.34900 111848817.86100      1904.72500                
G28  24157896.79400 126950604.49900     -3032.30900                
E01        34.13300       179.36900       -12.32600                
E04        39.68500       208.54700        10.60100                
E05        17.80100        93.54500        14.96100                
E06        10.58100        55.60100       -14.59300                
> 2025 04 22 14 00 39.0000000  0 14
G03  24454539.70700 128509473.53000      1626.60700                
G09  24285381.62200 127620541.78900      -416.86900                
G14  20693975.05600 108747572.90500      -218.42700                
G15  24908437.66600 130894723.40100     -4065.49700                
G18  21934656.76600 115267399.29800      2564.06500                
G19  21622888.06300 113629043.70300     -2190.92200                
G22  23676620.37500 124421479.84800      2976.33200                
G23  20741069.04300 108995053.47500     -1190.81300                
G27  21283760.04900 111846913.96000      1903.08200                
G28  24158473.73800 126953636.35800     -3031.39500                
E01        36.41800       191.37700       -11.68200                
E04        37.59900       197.58500        11.31500                
E05        14.94400        78.53400        15.03200                
E06        13.40200        70.42900       -14.98100                
> 2025 04 22 14 00 40.0000000  0 14
G03  24454230.16600 128507846.88000      1626.72600                
G09  24285460.90000 127620958.39800      -416.37800                
G14  20694016.71400 108747791.82100      -219.42400                
G15  24909211.47400 130898789.78900     -4067.28900                
G18  21934168.80300 115264835.03300      2564.43000                
G19  21623305.05000 113631234.98600     -2191.62300                
G22  23676054.08800 124418503.98700      2975.34800                
G23  20741295.64700 108996244.28800     -1190.80500                
G27  21283398.05400 111845011.66500      1901.51800                
G28  24159050.49300 126956667.22900     -3030.33400                
E01        38.57600       202.71800       -10.99200                
E04        35.38200       185.93200        11.98400                
E05        12.09500        63.56000        14.86200                
E06        16.26100        85.45100       -15.02200                
> 2025 04 22 14 00 41.0000000  0 14
G03  24453920.58200 128506220.00600      1627.05100                
G09  24285540.10100 127621374.60600      -416.07000                
G14  20694058.57300 108748011.79100      -220.53300                
G15  24909985.61500 130902857.92800     -4068.99400                
G18  21933680.78500 115262270.48000      2564.64200                
G19  21623722.15600 113633426.89100     -2192.16700                
G22  23675488.00500 124415529.20200      2974.18200                
G23  20741522.24400 108997435.06200     -1190.73500                
G27  21283036.34800 111843110.88900      1900.04500                
G28  24159627.03400 126959696.97300     -3029.14600                
E01        40.59900       213.34800       -10.26000                
E04        33.04100       173.63300        12.60600                
E05         9.31900        48.97100        14.19400                
E06        19.10800       100.41200       -14.87600                
> 2025 04 22 14 00 42.0000000  0 14
G03  24453610.91800 128504592.71000      1627.57000                
G09  24285619.26300 127621790.60300      -415.95900                
G14  20694100.65300 108748232.92400      -221.74900                
G15  24910760.07000 130906927.71900     -4070.58700                
G18  21933192.74100 115259705.79400      2564.69600                
G19  21624139.35000 113635619.26000     -2192.55000                
G22  23674922.16000 124412555.66700      2972.84900                
G23  20741748.82200 108998625.73800     -1190.61000                
G27  21282674.91300 111841211.53500      1898.67800                
G28  24160203.33900 126962725.47400     -3027.85200                
E01        42.47800       223.22500        -9.48800                
E04        30.58700       160.73800        13.17600                
E05         6.77100        35.58200        12.24200                
E06        21.91500       115.16300       -14.60800                
> 2025 04 22 14 00 43.0000000  0 14
G03  24453301.13800 128502964.80400      1628.26900                
G09  24285698.42300 127622206.59300      -416.05600                
G14  20694142.97400 108748455.32200      -223.06400                
G15  24911534.81700 130910999.03700     -4072.04700                
G18  21932704.70300 115257141.13500      2564.58700                
G19  21624556.60100 113637811.93100     -2192.77200                
G22  23674356.58400 124409583.54300      2971.36500                
G23  20741975.37100 108999816.26400     -1190.43700                
G27  21282313.72700 111839313.49100      1897.42600                
G28  24160779.38900 126965752.63800     -3026.47700                
E01        44.20700       232.31100        -8.68000                
E04        28.03000       147.30100        13.68900                
E05         4.88800        25.68900         6.61000                
E06        24.66200       129.59800       -14.24900                
> 2025 04 22 14 00 44.0000000  0 13
G03  24452991.20900 128501336.11500      1629.13000                
G09  24285777.62200 127622622.78800      -416.36900                
G14  20694185.55400 108748679.08100      -224.46900                
G15  24912309.82600 130915071.74100     -4073.35200                
G18  21932216.70100 115254576.66600      2564.31400                
G19  21624973.88000 113640004.74500     -2192.83500                
G22  23673791.30300 124406612.97100      2969.74800                
G23  20742201.88400 109001006.59700     -1190.22300                
G27  21281952.76800 111837416.63600      1896.30100                
G28  24161355.17200 126968778.39700     -3025.04500                
E04        25.38100       133.38000        14.14000                
E05         4.61600        24.25800        -4.05700                
E06        27.33300       143.63700       -13.81600                
> 2025 04 22 14 00 45.0000000  0 14
G03  24452681.10200 128499706.49300      1630.13400                
G09  24285856.90200 127623039.40600      -416.90300                
G14  20694228.41000 108748904.28700      -225.95600                
G15  24913085.06800 130919145.66400     -4074.48400                
G18  21931728.76600 115252012.55300      2563.87800                
G19  21625391.15500 113642197.54300     -2192.74200                
G22  23673226.34000 124403644.07400      2968.01800                
G23  20742428.35300 109002196.69800     -1189.97700                
G27  21281592.01000 111835520.83900      1895.31000                
G28  24161930.67900 126971802.70600     -3023.58100                
E03        42.95500       225.72900         9.27600                
E04        22.65300       119.04300        14.52000                
E05         6.17400        32.44500       -11.25700                
E06        29.91600       157.20900       -13.31900                
> 2025 04 22 14 00 46.0000000  0 14
G03  24452370.79200 128498075.80400      1631.26000                
G09  24285936.30500 127623456.66900      -417.66000                
G14  20694271.55500 108749131.01500      -227.51200                
G15  24913860.50700 130923220.62500     -4075.42700                
G18  21931240.93000 115249448.95500      2563.28200                
G19  21625808.39900 113644390.17400     -2192.50100                
G22  23672661.71600 124400676.95300      2966.19900                
G23  20742654.77300 109003386.54200     -1189.70800                
G27  21281231.42700 111833625.96400      1894.46000                
G28  24162505.90600 126974825.54500     -3022.11100                
E03        41.11500       216.06000        10.05700                
E04        19.86100       104.36800        14.81400                
E05         8.60700        45.23200       -13.85800                
E06        32.39800       170.25500       -12.76300                
> 2025 04 22 14 00 47.0000000  0 14
G03  24452060.25800 128496443.93700      1632.48300                
G09  24286015.87200 127623874.79900      -418.63700                
G14  20694315.00100 108749359.33000      -229.12600                
G15  24914636.10700 130927296.42900     -4076.16700                
G18  21930753.22200 115246886.03200      2562.53200                
G19  21626225.58300 113646582.49200     -2192.11900                
G22  23672097.44400 124397711.68600      2964.31400                
G23  20742881.14000 109004576.10900     -1189.42500                
G27  21280870.99200 111831731.86700      1893.75300                
G28  24163080.85500 126977846.92300     -3020.66200                
E03        39.13000       205.62800        10.80100                
E04        17.02200        89.45100        14.99700                
E05        11.34400        59.61400       -14.75100                
E06        34.77000       182.71800       -12.15500                
> 2025 04 22 14 00 48.0000000  0 14
G03  24451749.48500 128494810.81000      1633.77900                
G09  24286095.64600 127624294.01500      -419.83000                
G14  20694358.76000 108749589.28200      -230.78500                
G15  24915411.82800 130931372.86800     -4076.69400                
G18  21930265.67000 115244323.93300      2561.63400                
G19  21626642.68200 113648774.36200     -2191.60700                
G22  23671533.53600 124394748.32800      2962.38600                
G23  20743107.45200 109005765.38900     -1189.13700                
G27  21280510.67900 111829838.40500      1893.19100                
G28  24163655.53200 126980866.87300     -3019.25900                
E03        37.00700       194.47300        11.50200                
E04        14.16300        74.42700        15.01600                
E05        14.18300        74.53100       -15.01700                
E06        37.02100       194.54800       -11.49800                
> 2025 04 22 14 00 49.0000000  0 14
G03  24451438.45900 128493176.36100      1635.12200                
G09  24286175.66800 127624714.52900      -421.23200                
G14  20694402.83700 108749820.91100      -232.47600                
G15  24916187.62700 130935449.72300     -4077.00100                
G18  21929778.30300 115241762.80100      2560.60000                
G19  21627059.67300 113650965.66000     -2190.97700                
G22  23670969.99700 124391786.90900      2960.44100                
G23  20743333.71000 109006954.38300     -1188.85400                
G27  21280150.45800 111827945.43200      1892.77600                
G28  24164229.94900 126983885.45300     -3017.92700                
E03        34.75500       182.63800        12.15900                
E04        11.32500        59.51300        14.74700                
E05        17.04200        89.55500       -14.99700                
E06        39.14300       205.69900       -10.79600                
> 2025 04 22 14 00 50.0000000  0 14
G03  24451127.17600 128491540.55500      1636.48600                
G09  24286255.97400 127625136.54400      -422.83100                
G14  20694447.23800 108750054.23900      -234.18400                
G15  24916963.46400 130939526.77400     -4077.08300                
G18  21929291.14500 115239202.76700      2559.44100                
G19  21627476.53300 113653156.27600     -2190.24300                
G22  23670406.82700 124388827.43200      2958.50400                
G23  20743559.91500 109008143.10000     -1188.58600                
G27  21279790.30200 111826052.80200      1892.50300                
G28  24164804.12100 126986902.74700     -3016.69000                
E03        32.38200       170.17100        12.76700                
E04         8.58900        45.13600        13.84700                
E05        19.88000       104.47100       -14.81300                
E06        41.12700       216.12600       -10.05200                
> 2025 04 22 14 00 51.0000000  0 14
G03  24450815.63300 128489903.38700      1637.84400                
G09  24286336.60300 127625560.25200      -424.61400                
G14  20694491.96500 108750289.27900      -235.89500                
G15  24917739.29600 130943603.79500     -4076.94000                
G18  21928804.21800 115236643.94900      2558.16900                
G19  21627893.24500 113655346.11100     -2189.42100                
G22  23669844.02300 124385869.87800      2956.60100                
G23  20743786.07200 109009331.56000     -1188.34000                
G27  21279430.18500 111824160.37500      1892.36900                
G28  24165378.06800 126989918.86100     -3015.57100                
E03        29.89900       157.12200        13.32200                
E04         6.15900        32.36800        11.22800                
E05        22.67200       119.14500       -14.51800                
E06        42.96600       225.79000        -9.27000                
> 2025 04 22 14 00 52.0000000  0 14
G03  24450503.83500 128488264.87500      1639.16800                
G09  24286417.58800 127625985.82800      -426.56400                
G14  20694537.01600 108750526.02500      -237.59500                
G15  24918515.07800 130947680.55900     -4076.57400                
G18  21928317.54200 115234086.45200      2556.80200                
G19  21628309.79300 113657535.08800     -2188.52700                
G22  23669281.57700 124382914.20100      2954.75500                
G23  20744012.18400 109010519.79000     -1188.12700                
G27  21279070.08100 111822268.01500      1892.36800                
G28  24165951.81600 126992933.92400     -3014.59100                
E03        27.31600       143.54600        13.81900                
E04         4.61100        24.23100         3.98500                
E05        25.40000       133.47900       -14.13800                
E06        44.65300       234.65500        -8.45300                
> 2025 04 22 14 00 53.0000000  0 14
G03  24450191.78900 128486625.06700      1640.43300                
G09  24286498.95800 127626413.42900      -428.66300                
G14  20694582.38900 108750764.46000      -239.26900                
G15  24919290.77000 130951756.84800     -4075.98900                
G18  21927831.13500 115231530.36400      2555.35400                
G19  21628726.16600 113659723.14200     -2187.58000                
G22  23668719.47400 124379960.33000      2952.99100                
G23  20744238.26000 109011707.82600     -1187.95500                
G27  21278709.96500 111820375.59400      1892.49000                
G28  24166525.39200 126995948.08500     -3013.76900                
E02        44.19700       232.25500         8.68600                
E03        24.64400       129.50400        14.25200                
E04         4.89700        25.73600        -6.67100                
E05        28.04900       147.39600       -13.68600                
> 2025 04 22 14 00 54.0000000  0 14
G03  24449879.51100 128484984.03400      1641.61300                
G09  24286580.73900 127626843.19500      -430.88900                
G14  20694628.07700 108751004.55100      -240.90500                
G15  24920066.33100 130955832.44700     -4075.19600                
G18  21927345.00900 115228975.75600      2553.84400                
G19  21629142.35500 113661910.23000     -2186.59700                
G22  23668157.69700 124377008.17400      2951.33100                
G23  20744464.30800 109012895.71500     -1187.83200                
G27  21278349.81500 111818482.99200      1892.72700                
G28  24167098.82700 126998961.51000     -3013.12200                
E02        42.46600       223.16200         9.49300                
E03        21.89600       115.06600        14.61000                
E04         6.78700        35.66800       -12.26400                
E05        30.60500       160.83100       -13.17200                
> 2025 04 22 14 00 55.0000000  0 14
G03  24449567.01800 128483341.87300      1642.68400                
G09  24286662.95500 127627275.24200      -433.22000                
G14  20694674.07100 108751246.25300      -242.48900                
G15  24920841.72100 130959907.15200     -4074.20500                
G18  21926859.17500 115226422.68100      2552.29100                
G19  21629558.35500 113664096.32500     -2185.59900                
G22  23667596.22500 124374057.61600      2949.79600                
G23  20744690.33700 109014083.50700     -1187.76400                
G27  21277989.61000 111816590.10100      1893.06600                
G28  24167672.15700 127001974.38000     -3012.66300                
E02        40.58600       213.28000        10.26500                
E03        19.08900       100.31400        14.87700                
E04         9.33800        49.07100       -14.20200                
E05        33.05800       173.72200       -12.60200                
> 2025 04 22 14 00 56.0000000  0 14
G03  24449254.33400 128481698.70600      1643.62400                
G09  24286745.62300 127627709.66300      -435.63200                
G14  20694720.36100 108751489.50700      -244.00800                
G15  24921616.90600 130963980.77400     -4073.03100                
G18  21926373.64000 115223871.17400      2550.71300                
G19  21629974.16500 113666281.42200     -2184.60300                
G22  23667035.03100 124371108.52300      2948.40600                
G23  20744916.35900 109015271.26200     -1187.75800                
G27  21277629.33200 111814696.82600      1893.49400                
G28  24168245.41900 127004986.89100     -3012.40500                
E02        38.56200       202.64600        10.99700                
E03        16.24200        85.35200        15.02300                
E04        12.11500        63.66400       -14.86500                
E05        35.39800       186.01700       -11.98000                
> 2025 04 22 14 00 57.0000000  0 14
G03  24448941.48500 128480054.67300      1644.41100                
G09  24286828.75500 127628146.52500      -438.09900                
G14  20694766.93200 108751734.24300      -245.45100                
G15  24922391.85100 130968053.13800     -4071.69000                
G18  21925888.40500 115221321.24900      2549.13000                
G19  21630389.78800 113668465.53300     -2183.63000                
G22  23666474.08600 124368160.73900      2947.17800                
G23  20745142.38700 109016459.04400     -1187.82000                
G27  21277268.96500 111812803.08400      1893.99600                
G28  24168818.65200 127007999.24700     -3012.35500                
E02        36.40300       191.30000        11.68700                
E03        13.38300        70.33000        14.98000                
E04        14.96500        78.64000       -15.03300                
E05        37.61400       197.66500       -11.31000                
> 2025 04 22 14 00 58.0000000  0 14
G03  24448628.50200 128478409.93700      1645.02700                
G09  24286912.35900 127628585.87100      -440.59500                
G14  20694813.77100 108751980.38000      -246.80700                
G15  24923166.52600 130972124.08500     -4070.20400                
G18  21925403.47100 115218772.90200      2547.56200                
G19  21630805.22900 113670648.69000     -2182.69900                
G22  23665913.35900 124365214.09700      2946.12600                
G23  20745368.43300 109017646.92500     -1187.95500                
G27  21276908.49600 111810908.81000      1894.55700                
G28  24169391.89500 127011011.66100     -3012.51900                
E02        34.11700       179.28700        12.33100                
E03        10.56200        55.50500        14.58900                
E04        17.82100        93.65100       -14.96000                
E05        39.69900       208.62200       -10.59600                
> 2025 04 22 14 00 59.0000000  0 14
G03  24448315.42000 128476764.67800      1645.45600                
G09  24286996.44000 127629027.71600      -443.09400                
G14  20694860.85800 108752227.82600      -248.06800                
G15  24923940.90700 130976193.48200     -4068.59200                
G18  21924918.83200 115216226.10600      2546.02800                
G19  21631220.49800 113672830.94400     -2181.82700                
G22  23665352.81400 124362268.41300      2945.26400                
G23  20745594.51200 109018834.97700     -1188.16400                
G27  21276547.91700 111809013.95100      1895.16100                
G28  24169965.19000 127014024.34700     -3012.90100                
E02        31.71300       166.65600        12.92500                
E03         7.88100        41.41400        13.38400                
E04        20.64900       108.51100       -14.74200                
E05        41.64500       218.84400        -9.84200                
> 2025 04 22 14 01  0.0000000  0 14
G03  24448002.27400 128475119.08800      1645.68500                
G09  24287080.99400 127629472.05100      -445.56800                
G14  20694908.17500 108752476.48100      -249.22500                
G15  24924714.97100 130980261.21500     -4066.87900                
G18  21924434.48000 115213680.82000      2544.54600                
G19  21631635.60800 113675012.36400     -2181.03200                
