     3.05           OBSERVATION DATA    M                   RINEX VERSION / TYPE
GSPF V1.7.0                             20250903 134327 UTC PGM / RUN BY / DATE
V101                                                        MARKER NAME
NON_GEODETIC                                                MARKER TYPE
                                                            OBSERVER / AGENCY
                                                            REC # / TYPE / VERS
                                                            ANT # / TYPE
  4181981.6015   860757.8909  4723075.8689                  APPROX POSITION XYZ
        0.0000        0.0000        0.0000                  ANTENNA: DELTA H/E/N
G    4 C1C L1C D1C S1C                                      SYS / # / OBS TYPES
E    4 C1B L1B D1B S1B                                      SYS / # / OBS TYPES
  2025     4    22    14     0    1.0000000     GPS         TIME OF FIRST OBS
G L1C  0.00000   0                                          SYS / PHASE SHIFT
E L1B  0.00000   0                                          SYS / PHASE SHIFT
 C1C    0.000 C1P    0.000 C2C    0.000 C2P    0.000        GLONASS COD/PHS/BIS
                                                            END OF HEADER
> 2025 04 22 14 00  1.0000000  0 16
G03  24466485.02800 128572246.61400      1664.83600                
G09  24282343.95000 127604578.71900      -398.31900                
G14  20692432.40000 108739466.19500      -201.01900                
G15  24879102.97700 130740568.56900     -4070.00000                
G18  21953136.23000 115364509.53700      2564.74600                
G19  21607185.91700 113546528.36900     -2168.25000                
G22  23698068.86800 124534192.43900      2964.67500                
G23  20732542.11100 108950244.14500     -1169.60100                
G27  21297659.39900 111919955.53800      1925.16200                
G28  24136664.23700 126839026.65700     -2999.83900                
E01        32.17900       169.10300         0.73800                
E02        26.90800       141.40200         6.14100                
E03        14.78400        77.69100         9.57100                
E04         4.95300        26.02700        -4.79600                
E05        18.33000        96.32400        -9.01500                
E06        29.00800       152.43600        -4.87700                
> 2025 04 22 14 00  2.0000000  0 16
G03  24466168.15100 128570581.41300      1665.54900                
G09  24282419.92300 127604977.96000      -400.17700                
G14  20692470.78500 108739667.90900      -202.40200                
G15  24879877.41000 130744638.24400     -4069.34300                
G18  21952648.28800 115361945.38200      2563.54900                
G19  21607598.46000 113548696.29800     -2167.61100                
G22  23697504.82700 124531228.38200      2963.44600                
G23  20732764.68100 108951413.75900     -1169.63600                
G27  21297293.04700 111918030.34500      1925.23300                
G28  24137235.05300 126842026.31900     -2999.52300                
E01        31.96900       167.99700         1.47300                
E02        25.68300       134.96400         6.72900                
E03        12.94800        68.04100         9.71100                
E04         6.16700        32.40800        -7.63500                
E05        20.01000       105.15400        -8.63600                
E06        29.87300       156.98100        -4.20900                
> 2025 04 22 14 00  3.0000000  0 16
G03  24465851.14700 128568915.54600      1666.16300                
G09  24282496.25700 127605379.09700      -402.11000                
G14  20692509.42900 108739870.98200      -203.73700                
G15  24880651.70400 130748707.18300     -4068.53000                
G18  21952160.57600 115359382.44000      2562.32500                
G19  21608010.88100 113550863.58400     -2166.96800                
G22  23696941.00900 124528265.49900      2962.33000                
G23  20732987.26200 108952583.43200     -1169.72000                
G27  21296926.67400 111916105.04100      1925.38300                
G28  24137805.82500 126845025.74400     -2999.36600                
E01        31.61900       166.15900         2.20100                
E02        24.34900       127.95500         7.28200                
E03        11.09700        58.31700         9.70900                
E04         7.76300        40.79500        -8.96300                
E05        21.61300       113.57800        -8.20400                
E06        30.60800       160.84700        -3.52000                
> 2025 04 22 14 00  4.0000000  0 16
G03  24465534.03700 128567249.12400      1666.65700                
G09  24282572.96400 127605782.19700      -404.09600                
G14  20692548.32100 108740075.36200      -205.01300                
G15  24881425.82800 130752775.23700     -4067.57600                
G18  21951673.09800 115356820.72700      2561.09300                
G19  21608423.18100 113553030.23300     -2166.34000                
G22  23696377.39100 124525303.66800      2961.34400                
G23  20733209.86400 108953753.21500     -1169.85700                
G27  21296560.26500 111914179.55300      1925.59900                
G28  24138376.58300 126848025.09700     -2999.37900                
E01        31.13200       163.59900         2.91800                
E02        22.91400       120.41200         7.79700                
E03         9.26700        48.69900         9.47800                
E04         9.53100        50.08500        -9.53100                
E05        23.12900       121.54600        -7.72400                
E06        31.21100       164.01500        -2.81400                
> 2025 04 22 14 00  5.0000000  0 16
G03  24465216.84700 128565582.27500      1667.01300                
G09  24282650.05300 127606187.29900      -406.11100                
G14  20692587.45000 108740280.98500      -206.22100                
G15  24882199.76000 130756842.27400     -4066.49900                
G18  21951185.85500 115354260.24300      2559.86900                
G19  21608835.36300 113555196.26900     -2165.74300                
G22  23695813.94800 124522342.75300      2960.50100                
G23  20733432.49800 108954923.16300     -1170.05200                
G27  21296193.81100 111912253.82100      1925.86700                
G28  24138947.36000 126851024.55000     -2999.56800                
E01        30.50900       160.32800         3.62100                
E02        21.38400       112.37500         8.27000                
E03         7.51600        39.49700         8.83000                
E04        11.36700        59.73400        -9.72000                
E05        24.55000       129.01300        -7.20300                
E06        31.67800       166.47000        -2.09500                
> 2025 04 22 14 00  6.0000000  0 16
G03  24464899.60200 128563915.14400      1667.21800                
G09  24282727.52600 127606594.42100      -408.13200                
G14  20692626.80100 108740487.77900      -207.35200                
G15  24882973.47600 130760908.17900     -4065.31700                
G18  21950698.84100 115351700.97100      2558.67300                
G19  21609247.43700 113557361.73100     -2165.19500                
G22  23695250.65000 124519382.60300      2959.81500                
G23  20733655.17500 108956093.33700     -1170.30700                
G27  21295827.30100 111910327.80200      1926.17200                
G28  24139518.19000 126854024.28000     -2999.93400                
E01        29.75500       156.36200         4.30800                
E02        19.76900       103.88800         8.69500                
E03         5.95900        31.31500         7.33800                
E04        13.21700        69.45600        -9.69800                
E05        25.86800       135.93900        -6.64500                
E06        32.00800       168.20100        -1.36600                
> 2025 04 22 14 00  7.0000000  0 16
G03  24464582.33400 128562247.89100      1667.25700                
G09  24282805.38100 127607003.55600      -410.13300                
G14  20692666.36000 108740695.66100      -208.39800                
G15  24883746.95900 130764972.85900     -4064.05200                
G18  21950212.05200 115349142.87300      2557.52200                
G19  21609659.41200 113559526.67400     -2164.71100                
G22  23694687.46700 124516423.05700      2959.29200                
G23  20733877.90600 108957263.79700     -1170.62600                
G27  21295460.73200 111908401.46400      1926.50000                
G28  24140089.10600 126857024.46700     -3000.47800                
E01        28.87100       151.72000         4.97300                
E02        18.07800        95.00300         9.06500                
E03         4.82800        25.37000         4.20600                
E04        15.04900        79.08500        -9.54100                
E05        27.07700       142.29000        -6.05200                
E06        32.19800       169.19900        -0.63000                
> 2025 04 22 14 00  8.0000000  0 16
G03  24464265.07600 128560580.68400      1667.12300                
G09  24282883.61400 127607414.67200      -412.09000                
G14  20692706.10900 108740904.54500      -209.35500                
G15  24884520.19500 130769036.24200     -4062.72700                
G18  21949725.47500 115346585.89800      2556.43200                
G19  21610071.30200 113561691.17300     -2164.30600                
G22  23694124.36800 124513463.95000      2958.94000                
G23  20734100.70400 108958434.60700     -1171.00800                
G27  21295094.09900 111906474.79600      1926.83200                
G28  24140660.14300 126860025.28400     -3001.19700                
E01        27.86300       146.42300         5.61500                
E02        16.32300        85.77900         9.37100                
E03         4.48300        23.55900        -0.77500                
E04        16.84200        88.50600        -9.28900                
E05        28.17000       148.03400        -5.43000                
E06        32.24700       169.46100         0.10800                
> 2025 04 22 14 00  9.0000000  0 16
G03  24463947.85900 128558913.70200      1666.80800                
G09  24282962.21400 127607827.71400      -413.98100                
G14  20692746.03200 108741114.33900      -210.21700                
G15  24885293.17500 130773098.28100     -4061.36600                
G18  21949239.09900 115344029.97600      2555.41800                
G19  21610483.12400 113563855.31100     -2163.99300                
G22  23693561.31900 124510505.10700      2958.76200                
G23  20734323.58000 108959605.83200     -1171.45400                
G27  21294727.40400 111904547.79900      1927.15400                
G28  24141231.33200 126863026.90400     -3002.08200                
E01        26.73600       140.49900         6.22900                
E02        14.51700        76.28600         9.59800                
E03         5.09300        26.76600        -5.33800                
E04        18.58000        97.63800        -8.96300                
E05        29.14200       153.14100        -4.78100                
E06        32.15700       168.98400         0.84600                
> 2025 04 22 14 00 10.0000000  0 16
G03  24463630.72100 128557247.12700      1666.30800                
G09  24283041.16500 127608242.60500      -415.78300                
G14  20692786.10900 108741324.94600      -210.98200                
G15  24886065.89500 130777158.95000     -4059.99300                
G18  21948752.90800 115341475.02300      2554.49500                
G19  21610894.89600 113566019.18800     -2163.78400                
G22  23692998.28700 124507546.35700      2958.75600                
G23  20734546.54800 108960777.53500     -1171.96300                
G27  21294360.64900 111902620.49200      1927.45000                
G28  24141802.70500 126866029.49000     -3003.12500                
E01        25.49500       133.97600         6.81200                
E02        12.67700        66.61700         9.72100                
E03         6.38200        33.53900        -7.90100                
E04        20.24900       106.41200        -8.57600                
E05        29.98800       157.58800        -4.10900                
E06        31.92600       167.77000         1.58000                
> 2025 04 22 14 00 11.0000000  0 16
G03  24463313.69500 128555581.14300      1665.62500                
G09  24283120.44900 127608659.24500      -417.47600                
G14  20692826.32300 108741536.27000      -211.64900                
G15  24886838.35400 130781218.25000     -4058.63300                
G18  21948266.88300 115338920.94300      2553.67600                
G19  21611306.63900 113568182.91200     -2163.69000                
G22  23692435.24100 124504587.52700      2958.92000                
G23  20734769.61800 108961949.77800     -1172.53300                
G27  21293993.84200 111900692.90800      1927.70400                
G28  24142374.29000 126869033.19200     -3004.31400                
E01        24.14600       126.88700         7.36000                
E02        10.82700        56.89500         9.69200                
E03         8.01300        42.10900        -9.08100                
E04        21.84000       114.77200        -8.13600                
E05        30.70400       161.35300        -3.41700                
E06        31.55600       165.82700         2.30600                
> 2025 04 22 14 00 12.0000000  0 16
G03  24462996.81600 128553915.93300      1664.76200                
G09  24283200.04300 127609077.51500      -419.04100                
G14  20692866.65400 108741748.21200      -212.22000                
G15  24887610.55700 130785276.20600     -4057.31000                
G18  21947781.00300 115336367.62600      2552.97000                
G19  21611718.37600 113570346.60200     -2163.71700                
G22  23691872.14700 124501628.45100      2959.24800                
G23  20734992.80300 108963122.61800     -1173.15900                
G27  21293626.99200 111898765.09800      1927.90100                
G28  24142946.11500 126872038.14900     -3005.63200                
E01        22.69600       119.26900         7.86900                
E02         9.00400        47.31400         9.41600                
E03         9.79600        51.47700        -9.57700                
E04        23.34300       122.66900        -7.65100                
E05        31.28800       164.41700        -2.70900                
E06        31.04900       163.16200         3.02200                
> 2025 04 22 14 00 13.0000000  0 16
G03  24462680.11800 128552251.67400      1663.72400                
G09  24283279.92100 127609497.27900      -420.46200                
G14  20692907.08500 108741960.67800      -212.69700                
G15  24888382.51400 130789332.86900     -4056.04800                
G18  21947295.24500 115333814.95300      2552.38800                
G19  21612130.13000 113572510.38300     -2163.87200                
G22  23691308.97700 124498668.96900      2959.73000                
G23  20735216.11100 108964296.11100     -1173.83700                
G27  21293260.11100 111896837.12400      1928.02800                
G28  24143518.20100 126875044.48300     -3007.06400                
E01        21.15400       111.16300         8.33500                
E02         7.27200        38.21300         8.68000                
E03        11.63600        61.14900        -9.72700                
E04        24.75000       130.06000        -7.12400                
E05        31.73500       166.76700        -1.98900                
E06        30.40700       159.78800         3.72300                
> 2025 04 22 14 00 14.0000000  0 16
G03  24462363.63300 128550588.53600      1662.52300                
G09  24283360.05500 127609918.38600      -421.72500                
G14  20692947.59800 108742173.57600      -213.08400                
G15  24889154.23900 130793388.31100     -4054.87100                
G18  21946809.58600 115331262.79900      2551.93400                
G19  21612541.92500 113574674.38300     -2164.15800                
G22  23690745.70000 124495708.93300      2960.35500                
G23  20735439.55300 108965470.30700     -1174.56300                
G27  21292893.21300 111894909.06400      1928.07300                
G28  24144090.56900 126878052.29700     -3008.58900                
E01        19.52700       102.61500         8.75300                
E02         5.75900        30.26300         7.00400                
E03        13.48600        70.86700        -9.68200                
E04        26.05200       136.90400        -6.56000                
E05        32.04400       168.39100        -1.25900                
E06        29.63300       155.72200         4.40600                
> 2025 04 22 14 00 15.0000000  0 16
G03  24462047.39100 128548926.67600      1661.16900                
G09  24283440.41400 127610340.67200      -422.81900                
G14  20692988.17700 108742386.81800      -213.38800                
G15  24889925.75000 130797442.62500     -4053.79800                
G18  21946324.00100 115328711.03200      2551.61400                
G19  21612953.78800 113576838.73600     -2164.57600                
G22  23690182.29300 124492748.20600      2961.10700                
G23  20735663.13700 108966645.24900     -1175.32900                
G27  21292526.31600 111892981.00500      1928.02400                
G28  24144663.23400 126881061.67400     -3010.18700                
E01        17.82600        93.67700         9.11400                
E02         4.71900        24.79800         3.56800                
E03        15.31300        80.47100        -9.50900                
E04        27.24400       143.16900        -5.96300                
E05        32.21300       169.28200        -0.52300                
E06        28.73100       150.98300         5.06900                
> 2025 04 22 14 00 16.0000000  0 16
G03  24461731.42100 128547266.24000      1659.67900                
G09  24283520.96300 127610763.96500      -423.73600                
G14  20693028.80600 108742600.32600      -213.61500                
G15  24890697.06800 130801495.92800     -4052.85000                
G18  21945838.46400 115326159.51800      2551.42900                
G19  21613365.74300 113579003.57300     -2165.12400                
G22  23689618.73100 124489786.66900      2961.97100                
G23  20735886.87000 108967820.97500     -1176.12900                
G27  21292159.43700 111891053.04600      1927.87200                
G28  24145236.20900 126884072.67500     -3011.83400                
E01        16.06200        84.40900         9.41000                
E02         4.51500        23.72700        -1.54100                
E03        17.09900        89.85500        -9.24600                
E04        28.32000       148.82100        -5.33700                
E05        32.24300       169.43600         0.21600                
E06        27.70500       145.59300         5.70600                
> 2025 04 22 14 00 17.0000000  0 16
G03  24461415.74600 128545607.35500      1658.07000                
G09  24283601.67100 127611188.08400      -424.47200                
G14  20693069.47100 108742814.02600      -213.77500                
G15  24891468.21800 130805548.35200     -4052.04400                
G18  21945352.95000 115323608.12100      2551.37900                
G19  21613777.81400 113581169.02200     -2165.80100                
G22  23689054.99600 124486824.22100      2962.92800                
G23  20736110.75800 108968997.51500     -1176.95600                
G27  21291792.59800 111889125.29400      1927.60900                
G28  24145809.50000 126887085.33900     -3013.50900                
E01        14.25000        74.88400         9.62300                
E02         5.24900        27.58300        -5.83600                
E03        18.82700        98.93900        -8.91000                
E04        29.27400       153.83300        -4.68400                
E05        32.13100       168.85100         0.95300                
E06        26.56100       139.57900         6.31600                
> 2025 04 22 14 00 18.0000000  0 16
G03  24461100.38600 128543950.13000      1656.36100                
G09  24283682.50100 127611612.84800      -425.02500                
G14  20693110.16200 108743027.85600      -213.87800                
G15  24892239.23000 130809600.04700     -4051.39400                
G18  21944867.43200 115321056.70800      2551.46000                
G19  21614190.02500 113583335.20800     -2166.59800                
G22  23688491.07100 124483860.77700      2963.95800                
G23  20736334.80500 108970174.89100     -1177.80100                
G27  21291425.82000 111887197.86200      1927.23100                
G28  24146383.11000 126890099.68200     -3015.18700                
E01        12.40700        65.19800         9.72800                
E02         6.60600        34.71300        -8.13900                
E03        20.48600       107.65600        -8.51500                
E04        30.10100       158.18200        -4.00900                
E05        31.88000       167.53000         1.68600                
E06        25.30400       132.97200         6.89400                
> 2025 04 22 14 00 19.0000000  0 16
G03  24460785.36000 128542294.65400      1654.57600                
G09  24283763.41800 127612038.07400      -425.39700                
G14  20693150.86800 108743241.76600      -213.93400                
G15  24893010.13400 130813651.17600     -4050.91200                
G18  21944381.88700 115318505.15000      2551.66800                
G19  21614602.40000 113585502.25100     -2167.51000                
G22  23687926.94600 124480896.27700      2965.03800                
G23  20736559.01500 108971353.11800     -1178.65500                
G27  21291059.12500 111885270.86700      1926.73300                
G28  24146957.03800 126893115.69400     -3016.84400                
E01        10.55800        55.48300         9.67100                
E02         8.26700        43.44600        -9.18500                
E03        22.06500       115.95100        -8.06800                
E04        30.79800       161.84500        -3.31500                
E05        31.49000       165.48100         2.41100                
E06        23.94000       125.80300         7.43700                
> 2025 04 22 14 00 20.0000000  0 16
G03  24460470.67900 128540640.99400      1652.73500                
G09  24283844.39000 127612463.58300      -425.59200                
G14  20693191.58000 108743455.71300      -213.95600                
G15  24893780.96400 130817701.91000     -4050.60800                
G18  21943896.29000 115315953.32400      2551.99400                
G19  21615014.95800 113587670.25700     -2168.52500                
G22  23687362.61200 124477930.68200      2966.14600                
G23  20736783.38600 108972532.20000     -1179.51100                
G27  21290692.53700 111883344.43000      1926.11500                
G28  24147531.27800 126896133.34400     -3018.45800                
E01         8.74300        45.94500         9.34500                
E02        10.06300        52.88100        -9.61600                
E03        23.55400       123.77800        -7.57700                
E04        31.36200       164.80700        -2.60500                
E05        30.96300       162.71100         3.12500                
E06        22.47600       118.11200         7.94000                
> 2025 04 22 14 00 21.0000000  0 16
G03  24460156.35100 128538989.19100      1650.86400                
G09  24283925.38300 127612889.20200      -425.61900                
G14  20693232.29500 108743669.67100      -213.95600                
G15  24894551.75200 130821752.43100     -4050.48600                
G18  21943410.62100 115313401.11700      2552.43000                
G19  21615427.71800 113589839.32500     -2169.63200                
G22  23686798.06600 124474963.97200      2967.26000                
G23  20737007.92100 108973712.13600     -1180.36000                
G27  21290326.07700 111881418.67200      1925.37700                
G28  24148105.81900 126899152.57600     -3020.00500                
E01         7.03300        36.95900         8.51000                
E02        11.90700        62.57300        -9.73100                
E03        24.94600       131.09100        -7.04400                
E04        31.78900       167.05100        -1.88300                
E05        30.30200       159.23600         3.82400                
E06        20.92100       109.93800         8.39900                
> 2025 04 22 14 00 22.0000000  0 16
G03  24459842.38000 128537339.26400      1648.98700                
G09  24284006.36500 127613314.76900      -425.48900                
G14  20693273.00900 108743883.62300      -213.94700                
G15  24895322.53500 130825802.92300     -4050.54900                
G18  21942924.86000 115310848.42400      2552.96300                
G19  21615840.69600 113592009.54100     -2170.81700                
G22  23686233.30900 124471996.15600      2968.35600                
G23  20737232.61500 108974892.91300     -1181.19300                
G27  21289959.76900 111879493.71100      1924.52200                
G28  24148680.64600 126902173.31300     -3021.46400                
E01         5.56900        29.26700         6.63300                
E02        13.75500        72.28300        -9.66400                
E03        26.23300       137.85400        -6.47500                
E04        32.07800       168.56900        -1.15200                
E05        29.50900       155.07000         4.50400                
E06        19.28200       101.33000         8.80900                
> 2025 04 22 14 00 23.0000000  0 16
G03  24459528.76600 128535691.20800      1647.12700                
G09  24284087.30900 127613740.13200      -425.21500                
G14  20693313.72100 108744097.56700      -213.94200                
G15  24896093.34700 130829853.57000     -4050.79700                
G18  21942438.98900 115308295.15400      2553.58100                
G19  21616253.90600 113594180.97500     -2172.06600                
G22  23685668.34700 124469027.26100      2969.41200                
G23  20737457.46600 108976074.51200     -1182.00200                
G27  21289593.63500 111877569.66100      1923.55500                
G28  24149255.74100 126905195.45600     -3022.81500                
E01         4.62900        24.32600         2.89000                
E02        15.57800        81.86100        -9.47600                
E03        27.40800       144.03100        -5.87400                
E04        32.22700       169.35300        -0.41500                
E05        28.58900       150.23400         5.16300                
E06        17.57200        92.34000         9.16100                
> 2025 04 22 14 00 24.0000000  0 16
G03  24459215.50100 128534044.99200      1645.31000                
G09  24284168.18900 127614165.15600      -424.81400                
G14  20693354.43400 108744311.51300      -213.95400                
G15  24896864.22500 130833904.55600     -4051.22500                
G18  21941952.99300 115305741.23000      2554.26800                
G19  21616667.35900 113596353.68300     -2173.36300                
G22  23685103.19000 124466057.34100      2970.40500                
G23  20737682.46800 108977256.90400     -1182.78000                
G27  21289227.69400 111875646.63000      1922.48400                
G28  24149831.08100 126908218.88900     -3024.04000                
E01         4.56800        24.00500        -2.28300                
E02        17.35600        91.20600        -9.20100                
E03        28.46600       149.59100        -5.24300                
E04        32.23500       169.39800         0.32400                
E05        27.54500       144.75200         5.79700                
E06        15.80000        83.03000         9.44600                
> 2025 04 22 14 00 25.0000000  0 16
G03  24458902.57700 128532400.56200      1643.55900                
G09  24284248.98100 127614589.72400      -424.30500                
G14  20693395.15100 108744525.48500      -213.99600                
G15  24897635.20000 130837956.05800     -4051.82700                
G18  21941466.86200 115303186.59100      2555.00900                
G19  21617081.06100 113598527.70400     -2174.69000                
G22  23684537.85200 124463086.46700      2971.31500                
G23  20737907.61400 108978440.05600     -1183.51800                
G27  21288861.96700 111873724.72000      1921.31700                
G28  24150406.64100 126911243.47900     -3025.12400                
E01         5.41700        28.46600        -6.28500                
E02        19.07500       100.23900        -8.85600                
E03        29.40200       154.50900        -4.58700                
E04        32.10400       168.70600         1.06100                
E05        26.38400       138.65000         6.40200                
E06        13.98200        73.47600         9.64600                
> 2025 04 22 14 00 26.0000000  0 16
G03  24458589.97700 128530757.84100      1641.89700                
G09  24284329.66800 127615013.73700      -423.70800                
G14  20693435.88100 108744739.51900      -214.07900                
G15  24898406.30500 130842008.24300     -4052.59100                
G18  21940980.58600 115300631.19300      2555.78600                
G19  21617495.01800 113600703.06100     -2176.03100                
G22  23683972.35000 124460114.73400      2972.12200                
G23  20738132.89700 108979623.92400     -1184.21200                
G27  21288496.47000 111871804.02100      1920.06400                
G28  24150982.39300 126914269.07500     -3026.05400                
E01         6.83400        35.91300        -8.34900                
E02        20.72300       108.89800        -8.45300                
E03        30.21100       158.75900        -3.90900                
E04        31.83200       167.27900         1.79300                
E05        25.11100       131.95800         6.97500                
E06        12.13600        63.77600         9.73100                
> 2025 04 22 14 00 27.0000000  0 16
G03  24458277.68400 128529116.72900      1640.34300                
G09  24284410.23500 127615437.11900      -423.04600                
G14  20693476.63000 108744953.66100      -214.21500                
G15  24899177.57000 130846061.26800     -4053.50400                
G18  21940494.15900 115298075.00600      2556.58200                
G19  21617909.23000 113602879.75800     -2177.36700                
G22  23683406.70500 124457142.25200      2972.80800                
G23  20738358.30600 108980808.46100     -1184.85400                
G27  21288131.21800 111869884.61300      1918.73800                
G28  24151558.30600 126917295.51900     -3026.81800                
E01         8.52300        44.79000        -9.27600                
E02        22.28900       117.12800        -7.99900                
E03        30.88900       162.32100        -3.21300                
E04        31.42200       165.12300         2.51600                
E05        23.73200       124.71100         7.51200                
E06        10.28900        54.07100         9.64300                
> 2025 04 22 14 00 28.0000000  0 16
G03  24457965.67500 128527477.10900      1638.91600                
G09  24284490.67100 127615859.81500      -422.34100                
G14  20693517.41200 108745167.97100      -214.41500                
G15  24899949.02200 130850115.27600     -4054.55200                
G18  21940007.58100 115295518.02100      2557.37800                
G19  21618323.69400 113605057.78200     -2178.68200                
G22  23682840.94300 124454169.15100      2973.35800                
G23  20738583.83300 108981993.61200     -1185.44000                
G27  21287766.22500 111867966.56100      1917.35200                
G28  24152134.34800 126920322.64100     -3027.40900                
E01        10.33000        54.28400        -9.64800                
E02        23.76400       124.88200        -7.50100                
E03        31.43300       165.17900        -2.50100                
E04        30.87500       162.25000         3.22800                
E05        22.25400       116.94700         8.01000                
E06         8.48400        44.58600         9.26300                
> 2025 04 22 14 00 29.0000000  0 16
G03  24457653.92300 128525838.84500      1637.63400                
G09  24284570.97200 127616281.79500      -421.61800                
G14  20693558.23900 108745382.51600      -214.68800                
G15  24900720.68400 130854170.38900     -4055.71400                
G18  21939520.85300 115292960.24600      2558.15800                
G19  21618738.40500 113607237.10300     -2179.95800                
G22  23682275.09000 124451195.57400      2973.76000                
G23  20738809.46600 108983179.31900     -1185.96700                
G27  21287401.50000 111866049.91800      1915.92100                
G28  24152710.48600 126923350.26600     -3027.82300                
E01        12.17700        63.99100        -9.73100                
E02        25.14100       132.11700        -6.96300                
E03        31.84000       167.31900        -1.77700                
E04        30.19400       158.67300         3.92400                
E05        20.68600       108.70700         8.46200                
E06         6.79900        35.73000         8.31900                
> 2025 04 22 14 00 30.0000000  0 16
G03  24457342.40100 128524201.78400      1636.51100                
G09  24284651.13400 127616703.05300      -420.90200                
G14  20693599.12500 108745597.37400      -215.04200                
G15  24901492.57700 130858226.71400     -4056.97200                
G18  21939033.97900 115290401.70800      2558.90300                
G19  21619153.35400 113609417.67300     -2181.17800                
G22  23681709.17600 124448221.67400      2974.00100                
G23  20739035.19300 108984365.52300     -1186.43100                
G27  21287037.05100 111864134.72400      1914.46000                
G28  24153286.68600 126926378.21600     -3028.05800                
E01        14.02300        73.68900        -9.64300                
E02        26.41200       138.79600        -6.38900                
E03        32.10800       168.73000        -1.04500                
E04        29.38300       154.40800         4.60200                
E05        19.03700       100.03900         8.86400                
E06         5.39100        28.32800         6.22000                
> 2025 04 22 14 00 31.0000000  0 16
G03  24457031.07700 128522565.76400      1635.55600                
G09  24284731.16300 127617123.60800      -420.21500                
G14  20693640.08700 108745812.62900      -215.48300                
G15  24902264.71700 130862284.33500     -4058.30200                
G18  21938546.96900 115287842.45000      2559.59600                
G19  21619568.52800 113611599.43000     -2182.32800                
G22  23681143.23100 124445247.61700      2974.07500                
G23  20739261.00200 108985552.15800     -1186.83100                
G27  21286672.88100 111862220.99900      1912.98400                
G28  24153862.91300 126929406.31300     -3028.11700                
E01        15.84000        83.23900        -9.44100                
E02        27.57100       144.88500        -5.78300                
E03        32.23700       169.40600        -0.30800                
E04        28.44400       149.47600         5.25700                
E05        17.31600        90.99800         9.20700                
E06         4.55900        23.95600         2.17200                
> 2025 04 22 14 00 32.0000000  0 16
G03  24456719.91700 128520930.61000      1634.77900                
G09  24284811.06600 127617543.50200      -419.58300                
G14  20693681.14100 108746028.37100      -216.01700                
G15  24903037.11500 130866343.31400     -4059.68200                
G18  21938059.83200 115285282.53000      2560.22100                
G19  21619983.91300 113613782.29500     -2183.39300                
G22  23680577.28900 124442273.57000      2973.97800                
G23  20739486.88100 108986739.16100     -1187.16600                
G27  21286308.99300 111860308.75100      1911.51000                
G28  24154439.13600 126932434.38100     -3028.00400                
E01        17.61000        92.54300        -9.15500                
E02        28.61100       150.35300        -5.14900                
E03        32.22500       169.34400         0.43100                
E04        27.38400       143.90200         5.88700                
E05        15.53700        81.64800         9.48100                
E06         4.64100        24.39100        -2.99500                
> 2025 04 22 14 00 33.0000000  0 16
G03  24456408.88800 128519296.14200      1634.18400                
G09  24284890.85600 127617962.80000      -419.02800                
G14  20693722.30600 108746244.69500      -216.64600                
G15  24903809.77800 130870403.68800     -4061.08800                
G18  21937572.58400 115282722.02600      2560.76400                
G19  21620399.49200 113615966.17700     -2184.36000                
G22  23680011.38200 124439299.70700      2973.70700                
G23  20739712.81800 108987926.46700     -1187.43700                
G27  21285945.38300 111858397.96900      1910.05400                
G28  24155015.32100 126935462.25500     -3027.72700                
E01        19.32000       101.52600        -8.80100                
E02        29.52900       155.17400        -4.49000                
E03        32.07300       168.54500         1.16800                
E04        26.20600       137.71200         6.48800                
E05        13.71400        72.06500         9.66600                
E06         5.59700        29.41400        -6.69200                
> 2025 04 22 14 00 34.0000000  0 16
G03  24456097.95500 128517662.17800      1633.77300                
G09  24284970.54900 127618381.59100      -418.57100                
G14  20693763.60000 108746461.69700      -217.37400                
G15  24904582.71000 130874465.47000     -4062.49400                
G18  21937085.24200 115280161.02600      2561.21000                
G19  21620815.24500 113618150.97200     -2185.21800                
G22  23679445.54200 124436326.20200      2973.26400                
G23  20739938.80100 108989114.01300     -1187.64600                
G27  21285582.04700 111856488.62800      1908.63100                
G28  24155591.43900 126938489.77400     -3027.29800                
E01        20.95600       110.12600        -8.39000                
E02        30.31900       159.32500        -3.80900                
E03        31.78100       167.01100         1.89900                
E04        24.91600       130.93700         7.05600                
E05        11.86600        62.35500         9.73000                
E06         7.06900        37.14700        -8.53700                
> 2025 04 22 14 00 35.0000000  0 16
G03  24455787.08300 128516028.53200      1633.54400                
G09  24285050.16700 127618799.98200      -418.23300                
G14  20693805.04200 108746679.47400      -218.19800                
G15  24905355.90700 130878528.64800     -4063.87700                
G18  21936597.82600 115277599.63300      2561.54800                
G19  21621231.15000 113620336.56700     -2185.95800                
G22  23678879.80300 124433353.22300      2972.65400                
G23  20740164.81700 108990301.73700     -1187.79500                
G27  21285218.97800 111854580.68700      1907.25600                
G28  24156167.46100 126941516.79200     -3026.72900                
E01        22.51000       118.28900        -7.92900                
E02        30.97700       162.78500        -3.10900                
E03        31.35100       164.75100         2.62100                
E04        23.52300       123.61200         7.58800                
E05        10.02200        52.66500         9.61000                
E06         8.78200        46.15100        -9.35600                
> 2025 04 22 14 00 36.0000000  0 16
G03  24455476.23700 128514395.02600      1633.49400                
G09  24285129.73200 127619218.10100      -418.03000                
G14  20693846.65000 108746898.12500      -219.11800                
G15  24906129.36300 130882593.18600     -4065.21100                
G18  21936110.35500 115275037.96100      2561.76900                
G19  21621647.18400 113622522.84000     -2186.57300                
G22  23678314.19600 124430380.93600      2971.88400                
G23  20740390.85600 108991489.58300     -1187.88900                
G27  21284856.16500 111852674.09000      1905.94400                
G28  24156743.36300 126944543.18000     -3026.03800                
E01        23.97100       125.97000        -7.42500                
E02        31.50100       165.53900        -2.39500                
E03        30.78500       161.77400         3.33000                
E04        22.03100       115.77500         8.07900                
E05         8.22800        43.24000         9.17000                
E06        10.59800        55.69500        -9.67400                
> 2025 04 22 14 00 37.0000000  0 16
G03  24455165.38400 128512761.48500      1633.61300                
G09  24285209.27300 127619636.09100      -417.97700                
G14  20693888.44100 108747117.74200      -220.13100                
G15  24906903.06600 130886659.02600     -4066.47400                
G18  21935622.85500 115272476.13000      2561.86300                
G19  21622063.32200 113624709.66300     -2187.05800                
G22  23677748.74900 124427409.49400      2970.96400                
G23  20740616.90900 108992677.49600     -1187.93200                
G27  21284493.59400 111850768.76800      1904.70800                
G28  24157319.12400 126947568.82100     -3025.24100                
E01        25.33300       133.12700        -6.88200                
E02        31.88800       167.57200        -1.67000                
E03        30.08500       158.09500         4.02400                
E04        20.45100       107.46900         8.52400                
E05         6.57100        34.53100         8.10400                
E06        12.44800        65.41200        -9.72700                
> 2025 04 22 14 00 38.0000000  0 16
G03  24454854.49400 128511127.74400      1633.89100                
G09  24285288.81900 127620054.11000      -418.08800                
G14  20693930.43400 108747338.41500      -221.23000                
G15  24907677.00200 130890726.08300     -4067.64400                
G18  21935135.34900 115269914.26900      2561.82700                
G19  21622479.54100 113626896.90600     -2187.41200                
G22  23677183.49100 124424439.04100      2969.90800                
G23  20740842.96500 108993865.42900     -1187.93000                
G27  21284131.25100 111848864.64000      1903.56000                
G28  24157894.72400 126950593.62200     -3024.36100                
E01        26.58800       139.72200        -6.30300                
E02        32.13600       168.87600        -0.93700                
E03        29.25400       153.73200         4.69900                
E04        18.79000        98.74400         8.91800                
E05         5.22400        27.45300         5.76300                
E06        14.29000        75.09600        -9.62000                
> 2025 04 22 14 00 39.0000000  0 16
G03  24454543.53700 128509493.65200      1634.31300                
G09  24285368.40300 127620472.32500      -418.37100                
G14  20693972.64400 108747560.22900      -222.41000                
G15  24908451.14900 130894794.25500     -4068.69900                
G18  21934647.86300 115267352.51200      2561.65700                
G19  21622895.81400 113629084.43600     -2187.63300                
G22  23676618.44500 124421469.70700      2968.73100                
G23  20741069.01700 108995053.34100     -1187.88900                
G27  21283769.11700 111846961.61200      1902.50900                
G28  24158470.15100 126953617.50900     -3023.41700                
E01        27.73000       145.72200        -5.69300                
E02        32.24400       169.44500        -0.19900                
E03        28.29800       148.70500         5.35100                
E04        17.06000        89.65300         9.25200                
E05         4.50900        23.69400         1.42500                
E06        16.10200        84.61500        -9.40400                
> 2025 04 22 14 00 40.0000000  0 16
G03  24454232.48600 128507859.07200      1634.86400                
G09  24285448.05700 127620890.91200      -418.83400                
G14  20694015.08500 108747783.25900      -223.66100                
G15  24909225.48500 130898863.41600     -4069.62200                
G18  21934160.42200 115264790.99200      2561.35100                
G19  21623312.11700 113631272.12200     -2187.72300                
G22  23676053.63400 124418501.60300      2967.44900                
G23  20741295.05800 108996241.19600     -1187.81800                
G27  21283407.17200 111845059.58300      1901.56400                
G28  24159045.39400 126956640.43100     -3022.43300                
E01        28.75300       151.09700        -5.05400                
E02        32.21200       169.27500         0.53900                
E03        27.21900       143.03900         5.97700                
E04        15.27400        80.26300         9.51400                
E05         4.73400        24.88000        -3.66800                
E06        17.86400        93.87700        -9.10700                
> 2025 04 22 14 00 41.0000000  0 16
G03  24453921.32000 128506223.88300      1635.52600                
G09  24285527.81700 127621310.05400      -419.47900                
G14  20694057.77100 108748007.57300      -224.97600                
G15  24909999.98200 130902933.42700     -4070.39600                
G18  21933673.05200 115262229.84500      2560.91300                
G19  21623728.42500 113633459.83500     -2187.68900                
G22  23675489.07500 124415534.82500      2966.08400                
G23  20741521.08400 108997428.96800     -1187.72400                
G27  21283045.39700 111843158.44200      1900.73100                
G28  24159620.44800 126959662.35900     -3021.43300                
E01        29.65200       155.82200        -4.39100                
E02        32.03900       168.36700         1.27500                
E03        26.02500       136.76200         6.57300                
E04        13.44500        70.65500         9.68400                
E05         5.78900        30.42000        -7.05700                
E06        19.56400       102.80700        -8.74400                
> 2025 04 22 14 00 42.0000000  0 16
G03  24453610.02000 128504587.98800      1636.27600                
G09  24285607.71800 127621729.93200      -420.30700                
G14  20694100.71100 108748233.22800      -226.34200                
G15  24910774.61100 130907004.13300     -4071.00800                
G18  21933185.77800 115259669.20300      2560.34400                
G19  21624144.71500 113635647.45300     -2187.53500                
G22  23674924.78200 124412569.44600      2964.65500                
G23  20741747.09000 108998616.63700     -1187.61500                
G27  21282683.77000 111841258.07600      1900.01600                
G28  24160195.31100 126962683.28800     -3020.44000                
E01        30.42300       159.87300        -3.70800                
E02        31.72700       166.72700         2.00500                
E03        24.72000       129.90400         7.13600                
E04        11.59600        60.93700         9.72700                
E05         7.30900        38.40800        -8.70400                
E06        21.18800       111.34600        -8.32500                
> 2025 04 22 14 00 43.0000000  0 16
G03  24453298.56900 128502951.30600      1637.09300                
G09  24285687.79200 127622150.72800      -421.31500                
G14  20694143.91600 108748460.27100      -227.74900                
G15  24911549.34100 130911075.36400     -4071.44700                
G18  21932698.62400 115257109.19000      2559.65300                
G19  21624560.96500 113637834.86200     -2187.27100                
G22  23674360.76500 124409605.51800      2963.18500                
G23  20741973.07400 108999804.19300     -1187.49900                
G27  21282322.26700 111839358.36500      1899.42100                
G28  24160769.98900 126965703.23800     -3019.47800                
E01        31.06200       163.23200        -3.00600                
E02        31.27700       164.36000         2.72600                
E03        23.31100       122.50200         7.66200                
E04         9.75600        51.26700         9.57000                
E05         9.04400        47.52500        -9.42600                
E06        22.72900       119.44200        -7.85800                
> 2025 04 22 14 00 44.0000000  0 16
G03  24452986.95900 128501313.78300      1637.95400                
G09  24285768.07600 127622572.61900      -422.49500                
G14  20694187.39200 108748688.73600      -229.18500                
G15  24912324.13700 130915146.94500     -4071.70600                
G18  21932211.61200 115254549.92700      2558.84700                
G19  21624977.15500 113640021.95700     -2186.90900                
G22  23673797.03000 124406643.07100      2961.69600                
G23  20742199.03700 109000991.63400     -1187.38600                
G27  21281960.86600 111837459.19000      1898.94500                
G28  24161344.48700 126968722.25000     -3018.56900                
E01        31.56600       165.88100        -2.29000                
E02        30.69100       161.28000         3.43300                
E03        21.80700       114.59400         8.14700                
E04         7.97500        41.91100         9.06400                
E05        10.86800        57.11200        -9.69500                
E06        24.17600       127.04800        -7.34800                
> 2025 04 22 14 00 45.0000000  0 16
G03  24452675.18300 128499675.38800      1638.83500                
G09  24285848.59900 127622995.77200      -423.83900                
G14  20694231.14200 108748918.64600      -230.63600                
G15  24913098.96500 130919218.69400     -4071.78100                
G18  21931724.76400 115251991.52300      2557.93600                
G19  21625393.26800 113642208.64500     -2186.45900                
G22  23673233.57900 124403682.11300      2960.21100                
G23  20742424.97900 109002178.96700     -1187.28400                
G27  21281599.54400 111835560.43100      1898.58800                
G28  24161918.82100 126971740.39100     -3017.73700                
E01        31.93300       167.80800        -1.56400                
E02        29.97100       157.49900         4.12400                
E03        20.21400       106.22400         8.58500                
E04         6.34900        33.36700         7.86300                
E05        12.71800        66.83400        -9.71900                
E06        25.52300       134.12500        -6.79900                
> 2025 04 22 14 00 46.0000000  0 16
G03  24452363.23900 128498036.11200      1639.71000                
G09  24285929.39300 127623420.34600      -425.33400                
G14  20694275.16900 108749150.00900      -232.09000                
G15  24913873.79000 130923290.42400     -4071.67000                
G18  21931238.09800 115249434.07600      2556.93400                
G19  21625809.28800 113644394.84500     -2185.93700                
G22  23672670.40800 124400722.62800      2958.75400                
G23  20742650.90300 109003366.20600     -1187.20100                
G27  21281238.27900 111833661.97100      1898.34500                
G28  24162493.00400 126974757.74600     -3017.00200                
E01        32.16100       169.00500        -0.83000                
E02        29.12200       153.03700         4.79600                
E03        18.54300        97.44200         8.97100                
E04         5.07100        26.65000         5.26000                
E05        14.55800        76.50100        -9.59400                
E06        26.76200       140.63500        -6.21500                
> 2025 04 22 14 00 47.0000000  0 16
G03  24452051.13100 128496395.97500      1640.55600                
G09  24286010.48400 127623846.48500      -426.96500                
G14  20694319.47200 108749382.82300      -233.53400                
G15  24914648.57500 130927361.95100     -4071.37500                
G18  21930751.63100 115246877.67300      2555.85300                
G19  21626225.20300 113646580.49400     -2185.35800                
G22  23672107.50900 124397764.57600      2957.34700                
G23  20742876.81400 109004553.37600     -1187.14500                
G27  21280877.05000 111831763.70000      1898.21000                
G28  24163067.05900 126977774.42200     -3016.38300                
E01        32.24800       169.46600        -0.09200                
E02        28.14700       147.91500         5.44400                
E03        16.80300        88.30300         9.29500                
E04         4.48000        23.54400         0.65800                
E05        16.36300        85.98800        -9.36500                
E06        27.88700       146.54500        -5.60100                
> 2025 04 22 14 00 48.0000000  0 16
G03  24451738.86700 128494755.01600      1641.34800                
G09  24286091.89800 127624274.31500      -428.71400                
G14  20694364.04800 108749617.07000      -234.95500                
G15  24915423.28800 130931433.09400     -4070.90300                
G18  21930265.37500 115244322.38300      2554.71000                
G19  21626641.00400 113648765.54100     -2184.73800                
G22  23671544.87200 124394807.89900      2956.01100                
G23  20743102.71700 109005740.50600     -1187.12400                
G27  21280515.83700 111829865.51200      1898.17600                
G28  24163641.00800 126980790.54500     -3015.89700                
E01        32.19500       169.18800         0.64700                
E02        27.05200       142.15800         6.06600                
E03        15.00900        78.87500         9.54600                
E04         4.84600        25.46400        -4.29800                
E05        18.11700        95.20500        -9.05700                
E06        28.89200       151.82700        -4.95900                
> 2025 04 22 14 00 49.0000000  0 16
G03  24451426.45900 128493113.30100      1642.06400                
G09  24286173.65400 127624703.94600      -430.56300                
G14  20694408.89000 108749852.72000      -236.34000                
G15  24916197.89500 130935503.67900     -4070.26200                
G18  21929779.34200 115241768.26000      2553.52100                
G19  21627056.68400 113650949.95500     -2184.09400                
G22  23670982.48100 124391852.51300      2954.76700                
G23  20743328.62000 109006927.63700     -1187.14600                
G27  21280154.62200 111827967.31300      1898.23300                
G28  24164214.87800 126983806.25400     -3015.55900                
E01        32.00200       168.17400         1.38200                
E02        25.84100       135.79300         6.65800                
E03        13.17700        69.24300         9.70000                
E04         5.99000        31.47700        -7.38500                
E05        19.80600       104.08100        -8.68600                
E06        29.77200       156.45500        -4.29300                
> 2025 04 22 14 00 50.0000000  0 16
G03  24451113.92400 128491470.91800      1642.68100                
G09  24286255.76900 127625135.46700      -432.48900                
G14  20694453.99300 108750089.73300      -237.67700                
G15  24916972.36400 130939573.54300     -4069.46300                
G18  21929293.53800 115239215.34200      2552.30300                
G19  21627472.24100 113653133.72100     -2183.44400                
G22  23670420.31600 124388898.31700      2953.63300                
G23  20743554.53200 109008114.81200     -1187.21600                
G27  21279793.38800 111826069.01600      1898.36900                
G28  24164788.69900 126986821.70400     -3015.38000                
E01        31.67000       166.42600         2.11100                
E02        24.52000       128.85400         7.21600                
E03        11.32600        59.52000         9.71900                
E04         7.55300        39.69200        -8.85100                
E05        21.41900       112.55800        -8.26000                
E06        30.52400       160.40500        -3.60600                
> 2025 04 22 14 00 51.0000000  0 16
G03  24450801.28300 128489827.97500      1643.18100                
G09  24286338.25700 127625568.94300      -434.47100                
G14  20694499.34400 108750328.05600      -238.95600                
G15  24917746.66800 130943642.53600     -4068.52100                
G18  21928807.96700 115236663.65000      2551.07300                
G19  21627887.67500 113655316.84200     -2182.80600                
G22  23669858.35500 124385945.19300      2952.62700                
G23  20743780.46300 109009302.08400     -1187.33900                
G27  21279432.12100 111824170.54900      1898.57200                
G28  24165362.50200 126989837.05900     -3015.37000                
E01        31.20000       163.95500         2.83000                
E02        23.09700       121.37400         7.73600                
E03         9.49100        49.87600         9.52400                
E04         9.30700        48.90700        -9.48600                
E05        22.94700       120.58500        -7.78600                
E06        31.14400       163.66100        -2.90200                
> 2025 04 22 14 00 52.0000000  0 16
G03  24450488.55800 128488184.59800      1643.54500                
G09  24286421.12500 127626004.41800      -436.48300                
G14  20694544.93200 108750567.62400      -240.16700                
G15  24918520.78000 130947710.52200     -4067.45200                
G18  21928322.63000 115234113.18600      2549.85000                
G19  21628302.99000 113657499.33700     -2182.19700                
G22  23669296.57300 124382993.00500      2951.76200                
G23  20744006.42200 109010489.50800     -1187.52000                
G27  21279070.81100 111822271.85100      1898.82700                
G28  24165936.32000 126992852.49100     -3015.53500                
E01        30.59400       160.77100         3.53500                
E02        21.57900       113.39600         8.21400                
E03         7.72600        40.59800         8.94400                
E04        11.13800        58.53000        -9.71000                
E05        24.38000       128.11600        -7.27000                
E06        31.62800       166.20500        -2.18400                
> 2025 04 22 14 00 53.0000000  0 16
G03  24450175.77900 128486540.93200      1643.75800                
G09  24286504.37700 127626441.91100      -438.50300                
G14  20694590.74300 108750808.36500      -241.30100                
